Application ID,Submission ID,Applicant Role,"Association, Cooperative, or Owner",Address Number,Street Direction,Street Name,Street Type,Number of Units,PIN,Vote Date,Recorded Date,Signed Date,Latitude,Longitude,Location
24,PB2016A00024,Authorized Agent,State Place Condominium Assoc,"1101, 1111, 1133-1155",S,State,ST,242,17-15-308-039-1001-1481,,12/09/2004,07/25/2016,,,
3197,PB2021A03197,Owner,,4759,N,Maplewood,AVE,30,13-13-205-001-0000,,11/03/2021,11/03/2021,41.968437138,-87.692420559,"(41.96843713795416, -87.69242055899308)"
690,PB2016A00690,Registered Agent,Dakin I LLC,225-927,W,Dakin,ST,33,14-20-206-006-0000,10/05/2016,,10/06/2016,,,
105,PB2016A00105,Authorized Agent,4629-35 n Main St Condominium Assoc,4629-4635,N,Main,,12,10-22-301-061-1001-1002      10-22-301-061-1004-1005      10-22-301-061-1007-1008      10-22-301-061-1011,,,07/29/2016,,,
851,PB2017A00851,Owner,Northtown Village Phase II,715,W,Evergreen 3rd,AVE,,17-04-113-100-1083,,,08/29/2016,,,
848,PB2017A00848,Owner,Northtown Village Phase II,754,W,Evergreen 2nd,AVE,,17-04-113-100-1012,,,08/29/2016,,,
860,PB2017A00860,Owner,Northtown Village Phase II,1333,N,Halsted 2N,ST,,17-04-113-100-1146,,,08/29/2016,,,
831,PB2017A00831,Owner,Northtown Village Phase II,1341,N,Halsted 2N,ST,,17-04-113-100-1148,,,08/29/2016,,,
859,PB2017A00859,Owner,Northtown Village Phase II,1327,N,Halsted 4N,ST,,1704-113-100-1144,,,08/29/2016,,,
858,PB2017A00858,Owner,Northtown Village Phase II,757,W,Evergreen 2nd,AVE,,17-04-113-100-1110,,,08/29/2016,,,
854,PB2017A00854,Owner,Northtown Village Phase II,728,W,Scott 1E,ST,,17-04-113-100-1100,,,08/29/2016,,,
830,PB2017A00830,Owner,Northtown Village Phase II,1421,N,Halsted 3S,ST,,17-04-113-100-1024,,,08/29/2016,,,
856,PB2017A00856,Owner,Northtown Village Phase II,1327,N,Halsted 2S,ST,,17-04-113-100-1141,,,08/29/2016,,,
849,PB2017A00849,Owner,Northtown Village Phase II,1421,N,Halsted 1N,ST,,17-04-113-100-1019,,,08/29/2016,,,
855,PB2017A00855,Owner,Northtown Village Phase II,720,W,Scott 1E,ST,,17-04-113-100-1094,,,08/29/2016,,,
850,PB2017A00850,Owner,Northtown Village Phase II,1421,N,Halsted 2N,ST,,17-04-113-100-1021,,,08/29/2016,,,
829,PB2017A00829,Owner,Northtown Village Phase II,1315,N,Burling 2nd,ST,,17-04-113-100-1036,,,08/29/2016,,,
2469,PB2019A02469,authorized agent,Montrose and Clarendon LLC DBA Eight Eight Eleven Uptown,811,W,Agatite,AVE,381,14-17-229-008-0000,,02/21/2019,02/21/2019,41.962630019,-87.650430429,"(41.962630018961406, -87.65043042896384)"
2017,PB2017A02017,registered agent,Southport Place Condo Assoc,1338-1346,W,Irving Park,RD,43,14-17-315-014-1000,10/18/0017,10/18/2017,10/18/2017,41.95446958,-87.663842824,"(41.95446957999608, -87.66384282403489)"
2060,PB2017A02060,"Lakeview Associates, Inc. (property manager)",,3546-3548,N,Bosworth,AVE,12,14-20-300-010-0000,,11/21/2017,11/21/2017,41.946575915,-87.667785365,"(41.94657591502344, -87.66778536499866)"
344,PB2016A00344,Property Manager,1322 West Huron Condominium Assoc,1322,W,Huron,ST,8,17-08-104-037-1001-1008,,,08/03/2016,41.89446851,-87.660446244,"(41.894468509987995, -87.66044624401881)"
1701,PB2017A01701,Property Manager,,2003-2005,W,Arthur,AVE,17,1131319041-1001,,08/11/2017,08/11/2017,41.999595117,-87.680337237,"(41.99959511703627, -87.68033723698991)"
1655,PB2017A01655,PROPERTY MANAGER,SILVER COAST CITADEL CONDOMINIUM ASSOICIATION,2403-2409,E,72ND,ST,98,21301040421098,,08/11/2017,08/11/2017,41.764326392,-87.566344376,"(41.764326392046335, -87.56634437596973)"
748,PB2016A00748,Owner,Mushroom Cliffs Bowl LLC 1846 W Division,1846,W,Division,ST,11,17-06-227-073-0000 & 17-06-227-074-0000,,,10/11/2016,41.903347722,-87.674274115,"(41.903347721966696, -87.6742741150143)"
895,PB2017A00895,Authorized Agent,Hedgerow CA,5400,S,Hyde Park,BLVD,56,20-12-113-052-1001-1056,,,08/08/2016,41.797997236,-87.584164109,"(41.79799723602623, -87.58416410904996)"
1687,PB2017A01687,Agent,South Commons Phase I Condo Assn,3041,S,Michigan,AVE,679,17-27-310-093-1679,,08/11/2017,08/11/2017,41.838299776,-87.623296812,"(41.83829977603046, -87.62329681198794)"
1868,PB2017A01868,authorized agent,,1342,S,Federal,ST,1,17-21-211-181-0000,,09/11/2017,09/11/2017,41.864513158,-87.629552548,"(41.86451315797737, -87.62955254795443)"
1676,PB2017A01676,Agent,3365-3369 N. Clark,3365-3369,N,Clark,ST,2,14-20-419-077-0000,,08/11/2017,08/11/2017,41.943457073,-87.653355999,"(41.94345707298264, -87.65335599897453)"
764,PB2016A00764,Registered Agent,Huron Pointe Condo Assoc,421,W,Huron,ST,99,17-09-124-020-1001-1222,,,10/19/2016,41.894614416,-87.639438496,"(41.89461441601839, -87.6394384960245)"
911,PB2017A00911,Registered Agent,2222 W Belmont Condo Assoc,2222,W,Belmont,AVE,20,14-19-329-055-1001-1020,,,11/28/2016,41.939611929,-87.684150991,"(41.939611929018625, -87.684150991023)"
324,PB2016A00324,Property Manager,Delaware Place Condominium Assoc,105-107,W,Delaware,PL,16,17-04-440-034-1001-1016,,,08/03/2016,41.899152283,-87.63156169,"(41.899152283046206, -87.63156168995424)"
1276,PB2017A01276,Registered Agent,,3500-3502,N,Reta,AVE,18,14-20-406-043-0000,,03/27/2017,03/27/2017,41.945545172,-87.650794536,"(41.94554517202249, -87.65079453600902)"
2170,PB2018A02170,Registered Agent,Magnolia Grace Condominium Association,3763-3765,N,Magnolia,AVE,12,14-20-118-046-1007,03/05/2018,03/09/2018,03/09/2018,41.950763528,-87.660332325,"(41.950763527984726, -87.66033232498829)"
209,PB2016A00209,Authorized Agent,Grandville Garden Condominium Assoc,1746-1750,W,Granville,AVE,17,14-06-209-092-1001,,,08/01/2016,41.994486368,-87.673719715,"(41.994486368020205, -87.67371971503297)"
915,PB2017A00915,Authorized Agent,Wrightwood Burling Place Condo Assoc,734,W,Wrightwood,AVE,31,14-28-302-053-1001-1036,,,11/30/2016,41.929201613,-87.64781235,"(41.92920161302189, -87.64781234995962)"
2513,PB2019A02513,Association Board President,912 West Chicago Avenue Condominiums Association,912,W,Chicago,AVE,12,17-05-424-016-1001 through 17-05-424-016-1032,,04/09/2019,04/09/2019,41.89645528,-87.650417352,"(41.89645527996394, -87.65041735197431)"
311,PB2016A00311,Property Manager,Old Norwood Circle Condominium Assoc,5962,N,East Circle,AVE,17,13-06-305-060-1001-1017,,,08/03/2016,41.990202761,-87.800301614,"(41.99020276104582, -87.80030161399664)"
2317,PB2018A02317,Owner,,2101,W,Irving Park,RD,5,14-19-105-033-0000,,05/14/2018,05/14/2018,41.954010154,-87.681240941,"(41.95401015404328, -87.68124094099036)"
2069,PB2017A02069,"Lakeview Associates, Inc (property manager)",,417,W,Roscoe,ST,36,14-21-310-016-0000,,11/21/2017,11/21/2017,41.94325362,-87.641220858,"(41.94325361996783, -87.64122085803231)"
2052,PB2017A02052,General Manager,Park Millennium Condominium Association,222,N,Columbus,DR,480,17-10-316-033-1004 to 17-10-316-033-1483,,11/16/2017,11/16/2017,41.886339416,-87.62083615,"(41.886339416011204, -87.62083614995649)"
2340,PB2018A02340,authorized agent,5100 Marine Drive Condo Association,5100,N,Marine,DR,300,14-08-403-028-1001-1300,06/01/1999,07/26/2018,07/26/2018,41.975355803,-87.65189745,"(41.9753558029658, -87.65189744998881)"
1708,PB2017A01708,AUTHORIZED AGENT,WRIGHTWOOD BURLING PLACE CONDOMINIUM ASSOCIATION,734-744,W,WRIGHTWOOD,AVE,31,14283020531036,,08/11/2017,08/11/2017,41.929201613,-87.64781235,"(41.92920161302189, -87.64781234995962)"
1138,PB2017A01138,authorized agent,Glen Lake No. 1 Condo Assoc,6461,W,Warner,AVE,72,13-18-409-069-1181-1252,01/23/2017,02/23/2017,02/23/2017,41.9562503291,-87.7889816631,"(41.956250329078074, -87.78898166313944)"
59,PB2016A00059,Board President,1120 Lake Shore Drive Building Corporation,1120,N,Lake Shore,DR,61,17-03-201-063-0000,,,07/29/2016,41.9031772756,-87.6248907244,"(41.90317727563051, -87.62489072443124)"
1142,PB2017A01142,President,The Robey Condo Assoc,4434-4444,N,Damen,AVE,52,14-18-134-033-1001-1052,,02/23/2017,02/23/2017,41.9625045694,-87.6791529233,"(41.96250456940412, -87.67915292325978)"
588,PB2016A00588,Authorized Agent,Lake Terrace Condo Assoc,7337,S,South Shore,DR,364,21-30-114-029-1001,,04/03/2011,09/30/2016,41.7632350239,-87.5596166825,"(41.76323502386814, -87.55961668246357)"
1667,PB2017A01667,Authorized Agent,Sterling Condominium Association,941-945,W,gordon,TER,72,14174130231001,08/09/2016,08/11/2017,08/11/2017,41.95724544,-87.6541256318,"(41.957245439985044, -87.65412563178273)"
897,PB2017A00897,Authorized Agent,Aspen Burnham Station CA,51,W,15th,ST,22,17-21-210-145-1001-10222,,,08/08/2016,41.8618155689,-87.6292921144,"(41.861815568885234, -87.6292921143974)"
32,PB2016A00032,Authorized Agent,401 East Ontario Condominium Assoc,401,E,Ontario,ST,394,17-10-208-017-1001-1396,,07/21/2016,07/21/2016,41.8933412963,-87.6175891512,"(41.893341296312244, -87.61758915120579)"
2121,PB2018A02121,Property Manager,Bucktown Ironwerks Condominium Association,1670,N,Claremont,AVE,30,14-31-326-073-1001 to 14-31-326-073-1030,01/23/2018,01/24/2018,01/24/2018,41.912314004,-87.6862002227,"(41.91231400404291, -87.68620022265665)"
3090,PB2020A03090,President,Four Thirty Four West Aldine Condominium Association,434,W,Aldine,AVE,20,14-21-310-071-1001; 14-21-310-071-1002; 14-21-310-071-1003; 14-21-310-071-1004; 14-21-310-071-1005; 14-21-310-071-1006; 14-21-310-071-1007; 14-21-310-071-1008; 14-21-310-071-1009; 14-21-310-071-1010; 14-21-310-071-1011; 14-21-310-071-1012; 14-21-310-071-1013; 14-21-310-071-1014; 14-21-310-071-1015; 14-21-310-071-1016; 14-21-310-071-1017; 14-21-310-071-1018; 14-21-310-071-1019; 14-21-310-071-1020;,,08/03/2020,08/03/2020,41.9423819861,-87.6413239773,"(41.942381986148455, -87.64132397734349)"
1585,PB2017A01585,Agent,City View Condominium Association,440-480,N,McClurg,CT,421,17-10-219-034-1001,,08/10/2017,08/10/2017,41.889816848,-87.6177773341,"(41.889816847972206, -87.61777733414253)"
2634,PB2019A02634,Manager,,6656,N,Damen,AVE,13,11-31-302-026-0000,,10/01/2019,10/01/2019,42.0030652451,-87.6804503784,"(42.00306524508387, -87.68045037835672)"
2614,PB2019A02614,Manager,,1552,N,La Salle,DR,16,17-04-204-010-0000,,09/30/2019,09/30/2019,41.9106784348,-87.6332809201,"(41.91067843482093, -87.63328092009478)"
1827,PB2017A01827,AUTHORIZED AGENT,LANDMARK GARDEN CA,16,W,36TH,ST,2,17334260144021,,08/28/2017,08/28/2017,41.829282056,-87.6271452454,"(41.82928205603544, -87.62714524537095)"
1347,PB2017A01347,authorized agent,Electric Company Lofts Condo Assoc,1751,N,Western,AVE,36,14-31-318-013-1001-1036,04/24/1997,05/18/2017,05/18/2017,41.9136097304,-87.6871603327,"(41.91360973036146, -87.68716033268412)"
1869,PB2017A01869,authorized agent,,1343,S,Clark,ST,1,17-21-211-189-0000,,09/11/2017,09/11/2017,41.864545563,-87.6301803871,"(41.86454556297125, -87.63018038710877)"
2373,PB2018A02373,Property Manager,475 West 24th Street Condominium Association,475,W,24th,ST,36,17-28-115-046-1001  --  17-28-115-046-1075,07/19/2018,10/01/2018,10/01/2018,41.8489421394,-87.6397722801,"(41.84894213935867, -87.63977228005614)"
3105,PB2020A03105,Attorney,,233,E,Wacker,DR,534,17-10-316-036-0000,,10/09/2020,10/09/2020,41.8877901723,-87.6212787129,"(41.8877901722575, -87.62127871291348)"
198,PB2016A00198,Authorized Agent,Rowe Building Condominium Assoc,714,S,Dearborn,ST,9,17-16-406-025-1001,,,08/01/2016,41.8730424544,-87.629304027,"(41.87304245435717, -87.62930402700464)"
2387,PB2018A02387,Chief Financial Officer,,701,W,Buckingham,PL,17,14-21-309-011-0000,,10/10/2018,10/10/2018,41.9426304339,-87.6471487087,"(41.9426304339287, -87.64714870869042)"
2185,PB2018A02185,Owner,,3330,N,Lake Shore,DR,60,14-21-310-018-0000,,03/22/2018,03/22/2018,41.9431607927,-87.6405568162,"(41.94316079265045, -87.64055681622992)"
1966,PB2017A01966,Registered Agent,,5636,N,Magnolia,AVE,29,1405323034,,09/20/2017,09/20/2017,41.9846936759,-87.661530642,"(41.98469367588627, -87.66153064203725)"
569,PB2016A00569,Owner,540 W Briar LLC,540,W,Briar,PL,112,14-28-102-015-0000,,,09/26/2016,41.9388107982,-87.6435422925,"(41.93881079821095, -87.64354229251548)"
2990,PB2019A02990,manager,,4752,S,wabash,AVE,24,20-10-100-034-0000,,10/30/2019,10/30/2019,41.8076990345,-87.6245595889,"(41.8076990345395, -87.62455958887034)"
102,PB2016A00102,Authorized Agent,Buena Clarendon Condominium Assoc,752,W,Buena,AVE,12,14-16-302-032-1001-1012,,,07/29/2016,41.9586016092,-87.6494732747,"(41.958601609177656, -87.64947327469463)"
955,PB2017A00955,Authorized Agent,Elm Street Plaza Venture LLP,1130,N,Dearborn,ST,396,17-04-413-001-0000 thru 17-04-413-015-0000,,,01/09/2017,41.9028427848,-87.6301003154,"(41.902842784810446, -87.63010031540077)"
1171,PB2017A01171,Vice President,,1330,N,Dearborn,ST,86,17-04-217-035-0000,,03/03/2017,03/03/2017,41.9066873142,-87.6302165986,"(41.90668731423024, -87.63021659858879)"
977,PB2017A00977,Authorized Agent,2144 Condo Assoc,2144,N,Lincoln Park West,,92,14-33-206-052-1001-1152,08/26/1981,,01/13/2017,41.9215050269,-87.6365897122,"(41.92150502692454, -87.63658971224659)"
417,PB2016A00417,Registered Agent,Granville Terrace Mutual Ownership Trust,1823-1825,W,Granville,AVE,116,14-06-214-017-0000,,,08/15/2016,41.9942233866,-87.6760854716,"(41.99422338658668, -87.67608547162864)"
1886,PB2017A01886,authorized agent,,1429,S,Clark,ST,1,17-21-211-035-0000,,09/11/2017,09/11/2017,41.8631827418,-87.6301420784,"(41.863182741789224, -87.63014207837462)"
564,PB2016A00564,Property Manager,Carolina Condominium Assoc,6610-6618,S,Kenwood,AVE,35,20-23-223-042-1001-1031 and 20-23-223-039-1001-1025,,08/31/2016,09/21/2016,41.7747059509,-87.5930891198,"(41.77470595092749, -87.5930891198166)"
410,PB2016A00410,Authorized Agent,The Willows of Lincoln Park,1700-1728,N,Larrabee,ST,34,14-33-316-079-1001-1032,,,08/25/2016,41.9128616965,-87.6436388154,"(41.91286169649795, -87.64363881535564)"
890,PB2017A00890,Authorized Agent,West Haven Park Homes CA,2235,W,Maypole,AVE,,17-07-321-048-1035-1043,,,08/08/2016,41.8838067794,-87.6826947915,"(41.88380677942755, -87.68269479145911)"
2582,PB2019A02582,Manager,,1553,N,Wells,ST,24,17-04-204-003-0000,,09/25/2019,09/25/2019,41.9106813916,-87.6345489248,"(41.91068139160159, -87.63454892482174)"
2828,PB2019A02828,manager,,5240,S,Drexel,AVE,45,20-11-306-018-0000,,10/02/2019,10/02/2019,41.7992210856,-87.6040629969,"(41.79922108556044, -87.60406299687095)"
2352,PB2018A02352,Secretary of 2708-2712 N Ashland Condo Asoc,2708-2712 N Ashland Ave Condo Association,2708-2712,N,Ashland,AVE,6,14-30-40-50-75-10-08,,08/04/2018,08/04/2018,41.9309573804,-87.6684965177,"(41.93095738040266, -87.66849651772937)"
2077,PB2017A02077,"Lakeview Associates, Inc. (property manager)",,644,W,Surf,ST,40,14-28-116-020-0000,,11/21/2017,11/21/2017,41.9349586992,-87.645978515,"(41.93495869916498, -87.64597851499049)"
1203,PB2017A01203,authorized agent,550 St. Clair,550,N,ST CLAIR,ST,111,11-10-422-033-1001-1238,,03/03/2017,03/03/2017,41.8925135625,-87.6228347416,"(41.89251356251161, -87.62283474159473)"
758,PB2016A00758,Owner,Vranas Family Partners LLC,6758,N,Sheridan,RD,73,11-32-305-027-0000,,,10/19/2016,42.0052691205,-87.661031287,"(42.00526912045068, -87.66103128702672)"
1650,PB2017A01650,Authorized Agent,University Commons of Chicago Condo Association,1221-1229,E,57th,ST,32,20-14-214-026-1001,08/09/2016,08/11/2017,08/11/2017,41.7913461765,-87.5955642757,"(41.79134617650115, -87.59556427570486)"
3146,PB2021A03146,Manager,,3401,N,Southport,AVE,30,14-20-313-037-0000,,04/09/2021,04/09/2021,41.9434660263,-87.6637716032,"(41.94346602625338, -87.66377160318754)"
1575,PB2017A01575,authorized agent,North Town Village Condo Assoc,759,W,Evergreen,AVE,145,17-04-113-100-1111,,08/10/2017,08/10/2017,41.9062692634,-87.6481152704,"(41.90626926335497, -87.64811527040663)"
1057,PB2017A01057,property manager,Commonwealth Historic Priarie Avenue HOA,1815-1849,S,Prairie,PKWY,37,17-22-309-072-0000-17-22-309-114-0000,,02/02/2017,02/02/2017,41.8573423458,-87.6201028435,"(41.85734234578733, -87.62010284351575)"
2511,PB2019A02511,"Andco Management, Ltd.",,1331-1341,W,Addison,ST,40,14-20-304-007-0000,,04/04/2019,04/04/2019,41.9469763842,-87.6629369302,"(41.94697638423381, -87.66293693022894)"
327,PB2016A00327,Property Manager,Cornell Commons Condominium Assoc,5462-5470,S,Cornell,AVE,19,20-12-110-036-1001-1033,,,08/03/2016,41.7962681465,-87.5855829382,"(41.79626814652137, -87.5855829382365)"
627,PB2016A00627,Authorized Agent,Chelsea Townhomes,1137 #3,W,Monroe,ST,1,17-17-210-065-0000,,,09/22/2016,41.8802352922,-87.6561414428,"(41.88023529222652, -87.6561414427707)"
1041,PB2017A01041,authorized agent,Willard Court Lofts Condo Assoc,949-951,N,Willard,CT,20,17-05-318-060-1001-1050,,02/01/2017,02/01/2017,41.8996646554,-87.6584548304,"(41.89966465536126, -87.65845483038827)"
1578,PB2017A01578,Agent,Sheridan Briar South Condo Assn,405,W,Briar,PL,15,14-28-105-076-1001-1015,,08/10/2017,08/10/2017,41.9386489367,-87.6397716908,"(41.938648936652406, -87.63977169080967)"
2243,PB2018A02243,Property Manager,,3901-3907,W,Belden,AVE,10,13-35-108-007-0000,,04/03/2018,04/03/2018,41.922573053,-87.7243340029,"(41.922573053037134, -87.72433400292918)"
19,PB2016A00019,Authorized Agent,East Lincoln Park Village Condo Assoc.,2124-2128,N,Hudson,AVE,33,14-33-123-066-1001-1030,,06/08/2016,07/22/2016,41.9208918698,-87.640185521,"(41.92089186984495, -87.64018552099449)"
866,PB2017A00866,Owner,Lawndale Apartments,3241,W,Douglas,BLVD,,16-23-220-006-0000,,,08/29/2016,41.8623804851,-87.7071996704,"(41.86238048508937, -87.70719967041005)"
3352,PB2024A03352,Manager of Residences,Vista Residences Condominium Association/The Residences at St. Regis Chicago,363,E,Wacker,DR,463,17-10-318-088-0000,,04/10/2024,04/10/2024,41.8874643966,-87.6178602311,"(41.88746439664589, -87.61786023106754)"
378,PB2016A00378,President,Lill on the Park Condominium Assoc,2515-2525,N,Seminary,AVE,10,14-29-418-040-0000 thru          14-29-418-057-0000,,,08/04/2016,41.9276392337,-87.6559631571,"(41.92763923366318, -87.65596315711997)"
2193,PB2018A02193,authorized agent,656 W. Buckingham HOA,656,W,Buckingham,PL,6,14-21-308-060-0000,03/19/2018,03/27/2018,03/27/2018,41.9428574656,-87.646627283,"(41.94285746560873, -87.64662728297161)"
1656,PB2017A01656,authorized agent,Block X Condo Assoc,24,N,May,ST,99,17-08-443-042-1001-1099,,08/11/2017,08/11/2017,41.8823793228,-87.6556929667,"(41.882379322844955, -87.65569296672064)"
2636,PB2019A02636,Manager,,7237,N,Ridge,BLVD,9,11-30-323-006-0000,,10/01/2019,10/01/2019,42.0133498156,-87.6832938833,"(42.013349815602545, -87.68329388326212)"
3213,PB2022A03213,President,CRANDON CONDO ASSOCIATION,6833,S,Crandon,AVE,3,20-24-412-031-1001,01/10/2022,01/10/2022,01/10/2022,41.7708985792,-87.5697576336,"(41.77089857918299, -87.56975763355751)"
1610,PB2017A01610,AUTHORIZED AGENT,EASTGATE VILLAGE CONDOMINIUM ASSOCIATION,318-328,E,25TH,PL,48,17271290931039,05/09/2017,08/10/2017,08/10/2017,41.8464914815,-87.6195523773,"(41.846491481533604, -87.61955237733535)"
1783,PB2017A01783,authorized agent,Tandem Lofts Condo Assoc,1631,S,Michigan,AVE,61,17-22-302-051-0000,,08/22/2017,08/22/2017,41.8593811113,-87.6238204256,"(41.85938111128673, -87.62382042560738)"
2053,PB2017A02053,Board President,Commodore Green Briar Landmark C.A.,550,W,Surf,ST,115,14-28-122-017-1001-1271,07/31/2017,11/17/2017,11/17/2017,41.9343759338,-87.6434903672,"(41.934375933787926, -87.64349036719632)"
1561,PB2017A01561,Property Manager,Landmark Village Condo Association,2849,N,Wolcott,AVE,999,14-30-222-173-1120,,08/10/2017,08/10/2017,41.9337786651,-87.675591572,"(41.93377866512895, -87.67559157195839)"
386,PB2016A00386,Property Manager,Chaseland Condominium Assoc,1545,W,Chase,AVE,27,11-29-319-018-1001-1027,,,08/03/2016,42.0137364661,-87.6698911452,"(42.01373646606818, -87.6698911452008)"
1292,PB2017A01292,authorized agent,1555 N. Astor Condo Assoc,1555,N,Astor,ST,112,17-03-101-028-1001-1115,09/15/0016,03/27/2017,03/27/2017,41.9111578799,-87.6275133057,"(41.91115787985893, -87.6275133056584)"
1108,PB2017A01108,registered agent,Parkside of Old Town Midrise Leasehold Condo Assoc,511,W,Division,ST,207,17-04-307-054-4319,,02/15/2017,02/15/2017,41.9036308404,-87.6416874319,"(41.90363084041282, -87.64168743193885)"
816,PB2017A00816,Owner,Northtown Village Phase I,1427,N,Halsted,ST,116,17-04-113-082-0000,,,08/29/2016,41.9071889672,-87.6480380359,"(41.9071889672001, -87.64803803586298)"
1771,PB2017A01771,authorized agent,1250 N La Salle Condo Assoc,1250,N,La Salle,DR,196,20-17-04-221-063-1001-1359,09/15/2000,08/16/2017,08/16/2017,41.9053320861,-87.6331182361,"(41.90533208612039, -87.63311823610007)"
1951,PB2017A01951,Registered Agent,,500,W,Fullerton,PKWY,71,1428317034,,09/19/2017,09/19/2017,41.9256779637,-87.6415671662,"(41.92567796368094, -87.64156716615982)"
1899,PB2017A01899,authorized agent,,1445,S,Clark,ST,1,17-21-211-018-0000,,09/11/2017,09/11/2017,41.8627590229,-87.6301310555,"(41.86275902289559, -87.63013105548283)"
2540,PB2019A02540,Manager,,1134,W,Armitage,AVE,8,14-32-222-031-0000,,07/01/2019,07/01/2019,41.9181648087,-87.6568628321,"(41.91816480873289, -87.65686283213844)"
31,PB2016A00031,Authorized Agent,The Printers Square Condo Assoc,640-780,S,Federal,ST,355,17-16-405-097-1001-1355,,01/31/2006,07/20/2016,41.8739458527,-87.6297952157,"(41.87394585270466, -87.629795215686)"
671,PB2016A00671,Authorized Agent,1319 W Fillmore Condo Assoc,1319,W,Fillmore,ST,3,17-17-329-057-1001-1003,,,10/05/2016,41.8684676488,-87.6599745446,"(41.868467648813194, -87.65997454460482)"
2368,PB2018A02368,Property Manager,Lakefront Place Condominium Association,6730,S,South Shore,DR,91,20-20-406-027-1001     --    20-20-406-027-1901,07/17/2018,09/22/2018,09/22/2018,41.772627187,-87.5667665396,"(41.77262718696298, -87.56676653959914)"
3041,PB2020A03041,Manager,,2100,W,Cullerton,ST,6,17-19-312-048-0000,,01/04/2020,01/04/2020,41.8550023248,-87.678490302,"(41.855002324837784, -87.67849030197326)"
909,PB2017A00909,Authorized Agent,50 East Bellevue Condo Assoc,50,E,Bellevue,PL,145,17-03-202-065-1001-1145,,,08/31/2016,41.901697728,-87.6264728162,"(41.90169772799367, -87.62647281615905)"
504,PB2016A00504,Registered Agent,515 Wrightwood Condominium Assoc,515,W,Wrightwood,AVE,78,14-28-318-065-1002-1082,,08/31/2016,09/07/2016,41.9303840842,-87.6419494828,"(41.9303840842464, -87.64194948284154)"
894,PB2017A00894,Authorized Agent,Lakeshore Pointe CA,2349,E,70th,PL,63,20-24-430-011-1001-1114,,,08/08/2016,41.7670378145,-87.5677852292,"(41.767037814530234, -87.56778522918621)"
1880,PB2017A01880,authorized agent,,1401,S,Clark,ST,1,17-21-211-168-0000,,09/11/2017,09/11/2017,41.8639243267,-87.6301623247,"(41.86392432672453, -87.6301623247156)"
2664,PB2019A02664,Manager,,120,E,70th,ST,12,20-22-314-036-0000,,10/02/2019,10/02/2019,41.7675253386,-87.6208302475,"(41.76752533860878, -87.62083024754733)"
2980,PB2019A02980,manager,,2242-2244,N,monticello,AVE,13,13-35-113-022-0000,,10/30/2019,10/30/2019,41.9222111263,-87.7182912039,"(41.92221112628764, -87.71829120388026)"
146,PB2016A00146,Authorized Agent,Prairie House at Central Station,1515,S,Prairie,AVE,186,17-22-110-107-1101-1468,,,08/03/2016,41.8615727833,-87.6206642381,"(41.8615727832991, -87.62066423805882)"
1043,PB2017A01043,authorized agent,Two River Place Condominium,720,N,Larrabee,ST,168,17-09-113-017-1001-1168,,02/02/2017,02/02/2017,41.8953475557,-87.6431047144,"(41.895347555720434, -87.64310471436526)"
1328,PB2017A01328,authorized agent,854-858 W Erie Condo,854-858,W,Erie,ST,6,17-08-226-001-002,12/05/1997,04/28/2017,04/28/2017,41.8934569688,-87.6498530557,"(41.89345696880662, -87.64985305569661)"
975,PB2017A00975,Authorized Agent,734 West Belden Condo Assoc,734,W,Belden,AVE,3,14-33-100-041-1001-1003,01/12/2017,,01/13/2017,41.9237541575,-87.647703686,"(41.92375415745311, -87.64770368601008)"
1271,PB2017A01271,Registered Agent,,2739-2741,N,Hampden,CT,6,14-28-309-007-0000,,03/27/2017,03/27/2017,41.9318922208,-87.6420279624,"(41.9318922208422, -87.64202796236661)"
797,PB2016A00797,Authorized Agent,Ritchie Tower Condo Assoc,1310,N,Ritchie,CT,106,17-03-107-019-1001-1106,,,11/01/2016,41.906211991,-87.6267466272,"(41.9062119910102, -87.6267466271917)"
1056,PB2017A01056,authorized agent,Fulton Street Lofts Condo Assoc,1118,W,Fulton Market,,16,17-08-409-010-1001-1041,12/14/2016,02/02/2017,02/02/2017,41.8867904663,-87.6553494561,"(41.886790466342866, -87.65534945612572)"
1273,PB2017A01273,Registered Agent,,1401-1403,W,Huron,ST,16,17-08-113-015-0000,,03/27/2017,03/27/2017,41.8942171588,-87.6624327876,"(41.89421715882138, -87.66243278755019)"
3159,PB2021A03159,Secretary,1222-24 Ohio Condominium Association,1224,W,Ohio,ST,6,17-08-120-051-0000,,08/05/2021,08/05/2021,41.8926449739,-87.6584373729,"(41.892644973890654, -87.65843737285702)"
2245,PB2018A02245,Property Manager,,4922,N,Spaulding,AVE,4,13-11-421-020-0000,,04/03/2018,04/03/2018,41.9709311255,-87.7111363546,"(41.9709311255388, -87.71113635463618)"
238,PB2016A00238,Authorized Agent,Private Residences at Ontario Place Condo Assoc,10,E,Ontario,ST,467,17-10-111-014-1001,,,08/04/2016,41.893388867,-87.6277024007,"(41.89338886697453, -87.62770240071154)"
2408,PB2018A02408,Chief Financial Officer,,842-846,W,Fletcher,ST,63,14-29-204-034-0000,,10/12/2018,10/12/2018,41.9391046248,-87.6508581631,"(41.93910462483157, -87.6508581630905)"
1606,PB2017A01606,Agent,15th Place Condominium Assoc,833,W,15th,PL,196,17-20-234-007-1196,,08/10/2017,08/10/2017,41.8608946269,-87.6478827418,"(41.860894626886434, -87.64788274177263)"
2509,PB2019A02509,President,Fullerton Colonnade Association,453-457,W,Fullerton,PKWY,14,14-33-105-036-1001 thru 14-33-105-036-1014,12/03/2018,04/02/2019,04/02/2019,41.9254632283,-87.6412506468,"(41.925463228311116, -87.6412506468182)"
1467,PB2017A01467,PROPERTY MANAGER,,3709-3711,N,FREMONT,ST,7,14-20-223-012-0000,,07/20/2017,07/20/2017,41.9493883199,-87.6518240986,"(41.949388319880725, -87.65182409858349)"
700,PB2016A00700,Registered Agent,Millennium Park Plaza I LLC,151-155,N,Michigan,AVE,555,17-10-307-001-0000 thru 17-10-307-010-0000,10/05/2016,,10/06/2016,41.8845401106,-87.6243085225,"(41.88454011059238, -87.62430852246028)"
2566,PB2019A02566,Manager,,2856,N,Talman,AVE,8,13-25-225-009-0000,,08/12/2019,08/12/2019,41.9337720032,-87.694149316,"(41.9337720032186, -87.69414931600265)"
227,PB2016A00227,Authorized Agent,Sterling Private Residences,345,N,La Salle,DR,389,17-09-406-054-1001-1389,,,08/01/2016,41.8886713589,-87.6323632479,"(41.88867135885974, -87.63236324791603)"
2182,PB2018A02182,Owner,,1301-1311,W,Roscoe,ST,17,14-20-318-029-0000,,03/22/2018,03/22/2018,41.94334541,-87.6616119614,"(41.943345409982484, -87.66161196144893)"
2071,PB2017A02071,"Lakeview Associates, Inc (property manager)",,530,W,Diversey,PKWY,81,14-28-123-008-0000,,11/21/2017,11/21/2017,41.9329535112,-87.6427295293,"(41.93295351124636, -87.6427295292776)"
1848,PB2017A01848,Owner,,2638,N,Lincoln,AVE,2,14-29-410-011-0000,,09/01/2017,09/01/2017,41.92975946,-87.6550107682,"(41.929759460029416, -87.65501076819851)"
347,PB2016A00347,Property Manager,Randolph Place Residences Condominium Assoc,165,N,Canal,ST,340,17--09-325-009-1001-1732,,08/09/2016,08/18/2016,41.8850844376,-87.6396671641,"(41.885084437587125, -87.63966716407688)"
424,PB2016A00424,Registered Agent,Woodlands of Bronzeville Condominium Assoc,605-637,E,Woodland PARK,,240,17-34-219-150-0000,,,08/15/2016,41.8320466388,-87.6107150742,"(41.832046638833155, -87.6107150742344)"
338,PB2016A00338,Property Manager,3016 N. Harlem Condominium Assoc,3016,N,Harlem,AVE,8,12-25-215-058-1001-1008,,,08/03/2016,41.9349655271,-87.8067877344,"(41.934965527088764, -87.80678773440194)"
703,PB2016A00703,Registered Agent,Orleans I LLC,2046,N,Orleans,ST,70,14-33-207-026-0000,10/05/2016,,10/06/2016,41.9197273084,-87.6378934804,"(41.91972730835904, -87.637893480361)"
1972,PB2017A01972,Registered Agent,,444,W,ST JAMES,PL,176,1428319025,,09/20/2017,09/20/2017,41.9282234781,-87.6409173282,"(41.92822347814444, -87.64091732815324)"
400,PB2016A00400,Authorized Agent,3180 Condominium Assoc,3180,N,Lake Shore,DR,175,14-28-200-003-1001-1175,,08/18/2016,08/18/2016,41.9397761867,-87.6386543195,"(41.93977618674258, -87.63865431945976)"
2708,PB2019A02708,Manager,,2649,N,Wayne,AVE,5,14-29-308-033-0000,,10/02/2019,10/02/2019,41.9303128691,-87.6621312583,"(41.93031286908254, -87.66213125828982)"
1290,PB2017A01290,authorized agent,The Union Square Condos,333,W,Hubbard,ST,213,17-09-257-023-0000,,03/27/2017,03/27/2017,41.8898345117,-87.6369686148,"(41.88983451171652, -87.6369686148459)"
1757,PB2017A01757,authorized agent,Hawthorne Court Townhome Condo Assoc,3344-3356,N,Clifton,AVE,80,14-20-414-019-0000,,08/16/2017,08/16/2017,41.9430217768,-87.6579875522,"(41.943021776828616, -87.65798755216028)"
945,PB2017A00945,President,Glen Rose Condo Assoc,1349-1355,W,Rosemont,AVE,12,14-05-112-036-1001-1012,,,12/28/2016,41.9962236143,-87.6648973925,"(41.9962236143185, -87.66489739248463)"
2541,PB2019A02541,Manager,,1947,W,Patterson,AVE,10,14-19-227-001-0000,,07/01/2019,07/01/2019,41.947682302,-87.6780035663,"(41.94768230200013, -87.67800356629844)"
1313,PB2017A01313,Vice President,,441,W,Oakdale,AVE,70,14-28-118-005-0000,,04/05/2017,04/05/2017,41.9354652804,-87.6410218545,"(41.9354652803705, -87.64102185448043)"
963,PB2017A00963,Managing Agent,399 Corporation,399,W,Fullerton,PKWY,32,14-33-106-004-0000,11/30/2016,,12/01/2016,41.9255037067,-87.639060351,"(41.92550370670804, -87.63906035097119)"
1549,PB2017A01549,authorized agent,North Town Village Condo Assoc,708,W,Eastman,ST,145,17-04-113-100-1052,,08/10/2017,08/10/2017,41.9068743135,-87.6465285053,"(41.906874313525435, -87.64652850528253)"
122,PB2016A00122,Authorized Agent,Fairbanks at Cityfront Plaza Condominium Assoc,240,E,Illinois,ST,239,17-10-212-040-1001-1239,,09/12/2007,08/01/2016,41.8910996167,-87.6209676381,"(41.89109961666442, -87.62096763810514)"
837,PB2017A00837,Owner,Northtown Village Phase II,720,W,Scott,ST,,17-04-113-100-1095,,,08/29/2016,41.9050974459,-87.6470164887,"(41.905097445894015, -87.64701648868699)"
1839,PB2017A01839,Owner,,2108,N,Winchester,AVE,9,14-31-208-043-0000,,09/01/2017,09/01/2017,41.9198580498,-87.6766216604,"(41.919858049828576, -87.67662166038328)"
103,PB2016A00103,Authorized Agent,7018 N Ashland Condominium Assoc,7018,N,Ashland,BLVD,8,11-31-213-041-1009-1016,,,07/29/2016,42.00965849,-87.6702428575,"(42.009658490014644, -87.67024285753362)"
892,PB2017A00892,Authorized Agent,West Haven Park Homes CA,2257,W,Lake,ST,,17-07-321-048-1052-1060,,,08/08/2016,41.8846084399,-87.6839000898,"(41.884608439864856, -87.68390008982898)"
2570,PB2019A02570,President,"2000-2002 North Howe Homeowners Association, a Condominium",2000-2002,N,Howe,ST,6,14-33-127-015-1001; 14-33-127-015-1002; 14-33-127-015-1003; 14-33-127-015-1004; 14-33-127-015-1005; 14-33-127-015-1006,,09/03/2019,09/03/2019,41.9183214516,-87.6450394623,"(41.91832145162247, -87.6450394623049)"
3034,PB2019A03034,Attorney,Avenue B Townhome Homeowners Association,1711-1739,W,Belmont,AVE,26,14-30-203-040-0000 to 14-30-203-066-0000,,12/16/2019,12/16/2019,41.9395477331,-87.671572985,"(41.93954773308556, -87.67157298504782)"
1723,PB2017A01723,registered agent,Deming I LLC,482-484,W,Deming,PL,6,14-28-318-011-0000,10/07/0016,08/11/2017,08/11/2017,41.9289449541,-87.641891752,"(41.92894495409439, -87.64189175197968)"
1323,PB2017A01323,Secretary,3927 North Greenview Condominium Association,3927,N,Greenview,AVE,8,"14-20-101-048-1001, 14-20-101-048-1002, 14-20-101-048-1003, 14-20-101-048-1004, 14-20-101-048-1005, 14-20-101-048-1006, 14-20-101-048-1007, 14-20-101-048-1008, 14-20-101-048-1009, 14-20-101-048-1010, 14-20-101-048-1011, 14-20-101-048-1012, 14-20-101-048-1013",04/09/2017,04/18/2017,04/18/2017,41.9533164767,-87.6673279758,"(41.9533164766586, -87.6673279758063)"
751,PB2016A00751,President,2020 N Cleveland Ave Condo Assoc,2020,N,Cleveland,AVE,5,14-33-130-061-1001-1005,,,10/18/2016,41.9189400863,-87.6414148557,"(41.918940086281175, -87.64141485574343)"
1312,PB2017A01312,property manager,Edge Lofts & Tower,210,S,Desplaines,ST,224,"17-16-109-027-0000, 17-16-109-027-0000, 17-16-109-027-0000",07/29/0016,04/05/2017,04/05/2017,41.8789061062,-87.6441768777,"(41.87890610615117, -87.64417687768443)"
3198,PB2021A03198,Owner,,1901-1909,W,Wilson,AVE,40,14-18-213-008-0000,,11/03/2021,11/03/2021,41.9650292543,-87.6761800119,"(41.96502925425511, -87.67618001193337)"
219,PB2016A00219,Authorized Agent,Tower Residences Condominium Assoc,1235,S,Prairie,AVE,286,17-22-110-125-1001-1680,,05/15/2006,08/01/2016,41.8660952507,-87.6215020537,"(41.866095250729686, -87.6215020537047)"
939,PB2017A00939,Registered Agent,Lakewood CT H.O.A.,1301-1319,W,Belmont,AVE,16,14-29-102-055-0000 thru 14-29-102-069-0000,,,12/12/2016,41.9396891804,-87.6613711416,"(41.9396891804341, -87.66137114159271)"
1792,PB2017A01792,Owner,,3643,W,Grace,ST,8,13-23-122-017-0000,,08/23/2017,08/23/2017,41.9500155131,-87.7194640086,"(41.95001551312528, -87.71946400863513)"
1947,PB2017A01947,Registered Agent,,440,W,Barry,AVE,65,1428105037,,09/18/2017,09/18/2017,41.937821984,-87.6409938845,"(41.937821984040795, -87.6409938844915)"
1722,PB2017A01722,authorized agent,450 W. Briar Place,450,W,Briar,PL,142,14-28-103-065-1001-1267,,08/11/2017,08/11/2017,41.9388417933,-87.6414712548,"(41.93884179330718, -87.64147125479624)"
3381,PB2024A03381,Property Manager,Troy Courtyard Condominium Association,3037-3039,N,TROY,ST,13,13-25-113-049-1001,,09/25/2024,09/25/2024,41.9368044332,-87.7061832616,"(41.93680443322764, -87.70618326164545)"
2987,PB2019A02987,manager,,4261,W,nelson,ST,61,13-27-209-040-0000,,10/30/2019,10/30/2019,41.9361550525,-87.7356926143,"(41.93615505252903, -87.73569261427876)"
1307,PB2017A01307,Registered Agent,,4650-4656,N,Beacon,ST,22,14-17-108-010-0000,,03/29/2017,03/29/2017,41.9667999269,-87.6642141548,"(41.966799926947765, -87.66421415483246)"
822,PB2017A00822,Owner,Northtown Village Phase II,710,W,Eastman,ST,,17-04-113-100-1053,,,08/29/2016,41.9068729951,-87.6465992539,"(41.906872995136645, -87.6465992539031)"
2976,PB2019A02976,manager,,1801,W,erie,ST,5,17-07-213-022-0000,,10/30/2019,10/30/2019,41.8931501004,-87.6722079001,"(41.893150100433274, -87.67220790009935)"
1873,PB2017A01873,authorized agent,,1351,S,Clark,ST,1,17-21-211-185-0000,,09/11/2017,09/11/2017,41.8643525226,-87.6301751024,"(41.864352522592014, -87.63017510241866)"
345,PB2016A00345,Property Manager,437 West North Avenue Condominium Assoc,437,W,North,AVE,25,17-04-110-063-1001-1017          17-04-110-063-1019-1051,,,08/03/2016,41.9109837536,-87.6400315717,"(41.91098375361772, -87.6400315716768)"
566,PB2016A00566,Authorized Agent,Ambassador House Condominium Assoc,1325,N,State,PKWY,114,17-03-106-027-1001-1112,,09/19/2016,09/22/2016,41.9065982875,-87.6286258569,"(41.90659828753541, -87.62862585686169)"
1615,PB2017A01615,Agent,Buena Vista Condos,1015,W,buena,AVE,40,14-17-404-061-1001,,08/10/2017,08/10/2017,41.9583115615,-87.6552839359,"(41.95831156152134, -87.65528393588461)"
247,PB2016A00247,Property Manager,899 S. Plymouth Court Condominium Assoc,899,S,Plymouth,CT,250,17-16-419-004-1001,,12/31/1980,08/16/2016,41.8705729929,-87.6284479099,"(41.87057299287796, -87.62844790993732)"
1086,PB2017A01086,Board President,6300 Sheridan Building Condo Assoc,6300,N,Sheridan,RD,125,14052020191001-1125,,02/06/2017,02/06/2017,41.9965100574,-87.655730774,"(41.9965100573778, -87.65573077395769)"
2839,PB2019A02839,Manager,,7108,S,Constance,AVE,30,20-25-105-002-0000,,10/02/2019,10/02/2019,41.7657593701,-87.5807374368,"(41.76575937009664, -87.58073743682849)"
1289,PB2017A01289,authorized agent,3470 North Lake Shore Drive,3470,N,Lake Shore,DR,62,"14-21-306-038-1001-1060, 1063",,03/27/2017,03/27/2017,41.9457457058,-87.6419545522,"(41.94574570576034, -87.64195455215297)"
256,PB2016A00256,Authorized Agent,1122 N Dearborn Condominium Assoc,1122,N,Dearborn,ST,104,17-04-413-021-1001-1248,,09/28/2015,08/17/2016,41.9025983296,-87.6300929622,"(41.90259832960033, -87.63009296219045)"
160,PB2016A00160,President,University Village Lofts,1524-1525,S,Sangamon,ST,186,17-20-232-050-1001-1186,,07/01/2003,07/18/2016,41.8610019411,-87.6499613624,"(41.86100194107141, -87.64996136241881)"
2500,PB2019A02500,Lavinia Shimkus,,2525,W,Arthur,AVE,7,10-36-429-001-0000,,03/28/2019,03/28/2019,41.9993731908,-87.6934438981,"(41.99937319079902, -87.69344389805123)"
66,PB2016A00066,Authorized Agent,Zen Condo Assoc,225,S,Sangamon,ST,82,17-17-220-028-1001-1171,,06/29/2007,07/22/2016,41.8783763969,-87.650608917,"(41.87837639690936, -87.65060891699603)"
1049,PB2017A01049,President,Manhattan Building Condo Assoc,431,S,Dearborn,ST,105,17-16-246-018-1001-1105,,02/02/2017,02/02/2017,41.8761436439,-87.6291014646,"(41.87614364393888, -87.62910146456153)"
3094,PB2020A03094,Registered Agent,Venetian Condominium Association of Chicago,5953,N,Kenmore,AVE,20,"14-05-214-037-1001,14-05-214-037-1002,14-05-214-037-1003,14-05-214-037-1004,14-05-214-037-1005,14-05-214-037-1006,14-05-214-037-1007,14-05-214-037-1008,14-05-214-037-1009,14-05-214-037-1010,14-05-214-037-1011,14-05-214-037-1012, 14-05-214-037-1013, 14-05-214-037-1014, 14-05-214-037-1015, 14-05-214-037-1016, 14-05-214-037-1017, 14-05-214-037-1018, 14-05-214-037-1019, 14-05-214-037-1020",,08/14/2020,08/14/2020,41.9906035827,-87.6566829761,"(41.99060358265294, -87.65668297613544)"
41,PB2016A00041,Authorized Agent,Elm at Clark Condominium Assoc,1122,N,Clark,ST,303,17-04-412-028-1001,,07/25/2016,07/25/2016,41.9025787936,-87.6315563784,"(41.90257879364103, -87.63155637844827)"
1036,PB2017A01036,authorized agent,1000 W. Adams Condo Assoc,1000,W,Adams,ST,150,17-17-211-027-1001-1150,,02/01/2017,02/01/2017,41.8792466365,-87.6520856125,"(41.87924663645916, -87.65208561253912)"
1477,PB2017A01477,Property Manager,,3434,N,Halsted,ST,13,14-20-410--051-0000,,07/24/2017,07/24/2017,41.9446370254,-87.6495546513,"(41.94463702535818, -87.6495546513258)"
302,PB2016A00302,Property Manager,West Byron Condominium Assoc,3314-3320,W,Byron,ST,13,13-23-205-048-1001-1012,,,08/03/2016,41.9521724641,-87.7110237295,"(41.95217246405647, -87.71102372948302)"
1278,PB2017A01278,Registered Agent,,5333-5337,N,Clark,ST,14,14-08-116-006-0000,,03/27/2017,03/27/2017,41.9789760379,-87.6681627292,"(41.97897603791182, -87.6681627291557)"
607,PB2016A00607,Authorized Agent,Chelsea Townhomes,1117 #12,W,Monroe,ST,1,17-17-210-085-0000,,,09/22/2016,41.8802470942,-87.6553839969,"(41.880247094162456, -87.6553839968631)"
2025,PB2017A02025,"Lakeview Associates, Inc. (property manager)",,2540-2542,N,Racine,AVE,18,14-29-315-052-0000,,10/23/2017,10/23/2017,41.9283325739,-87.6587014532,"(41.92833257387978, -87.65870145322471)"
3214,PB2022A03214,property manager,,4012,W,Armitage,AVE,5,13-34-232-035-0000,,01/13/2022,01/13/2022,41.9172682509,-87.7271723345,"(41.917268250889514, -87.72717233452015)"
2246,PB2018A02246,Property Manager,,5117,N,Western,AVE,5,14-07-303-002-0000,,04/03/2018,04/03/2018,41.9746784827,-87.6889612062,"(41.97467848265179, -87.68896120624524)"
594,PB2016A00594,Authorized Agent,Chelsea Townhomes,1113,W,Monroe,ST,1,17-17-210-098-0000,,,09/22/2016,41.8802494539,-87.6552325077,"(41.880249453949865, -87.65523250765602)"
2208,PB2018A02208,Property Manager,,1404,N,Noble,ST,7,17-05-110-061-1001,,04/03/2018,04/03/2018,41.9072005824,-87.6628761339,"(41.90720058238122, -87.6628761338915)"
2983,PB2019A02983,manager,,3213-3223,W,diversey,AVE,34,13-26-407-002-0000,,10/30/2019,10/30/2019,41.9319196489,-87.7079905207,"(41.93191964888773, -87.70799052068719)"
1675,PB2017A01675,Property Manager,Wolcott Flats Condominium Assn,1901-1903,W,Newport,AVE,18,14-19-410-045-1018,,08/11/2017,08/11/2017,41.9440439604,-87.6761761844,"(41.94404396037433, -87.67617618442846)"
1793,PB2017A01793,Owner,,3645,W,Grace,ST,8,13-23-122-017-0000,,08/23/2017,08/23/2017,41.9500143202,-87.7195428534,"(41.95001432016562, -87.7195428534044)"
747,PB2016A00747,Owner,Teo Tongue LLC 5425 N Clark,5425,N,Clark,ST,10,14-08-109-001-0000,,,10/11/2016,41.9805131134,-87.6681841441,"(41.980513113428316, -87.66818414413196)"
139,PB2016A00139,Agent,1448 N Lake Shore Drive Building Corporation,1448,N,Lake Shore,DR,52,17-03-103-021-0000,,,08/02/2016,41.9092048287,-87.6262393201,"(41.909204828678796, -87.62623932012059)"
2178,PB2018A02178,Board President,4343 Clarendon Condominium Association,4343,N,Clarendon,AVE,450,14-16-300-032-1001-1451,03/20/2018,03/21/2018,03/21/2018,41.9616671369,-87.6497605695,"(41.96166713685557, -87.64976056950601)"
2307,PB2018A02307,Premier Management Services,SoNo West Condominium Association,860,W,Blackhawk,ST,198,1705214010,,04/24/2018,04/24/2018,41.9086459999,-87.6506421925,"(41.90864599993553, -87.65064219250912)"
1992,PB2017A01992,Property Manager,Fairbanks Lofts Condominium Association,900,S,Wabash,AVE,36,17-15-306-035-1000,09/26/2017,09/27/2017,09/27/2017,41.8705199662,-87.6260535165,"(41.87051996619818, -87.62605351647005)"
1193,PB2017A01193,Vice President,,537,W,Melrose,ST,77,14-21-314-045-0000,,03/03/2017,03/03/2017,41.9410420079,-87.6434054095,"(41.941042007937604, -87.6434054094853)"
1538,PB2017A01538,authorized agent,North Town Village Condo Assoc,707,W,Blackhawk,ST,145,17-04-113-100-1040,,08/10/2017,08/10/2017,41.9071446797,-87.6464578323,"(41.90714467970197, -87.64645783233401)"
3346,PB2023A03346,Registered Agent,Dayton Diversey Condominium Association,823,W,Diversey,PKWY,3,14294070901001,11/21/2023,11/22/2023,11/22/2023,41.9325891395,-87.6499887903,"(41.93258913951529, -87.64998879025694)"
2728,PB2019A02728,Manager,,3418-3420,N,Lincoln,AVE,18,"14-19-414-035-0000, 14-19-414-051-0000, 14-19-414-052-0000, 14-19-414-034-0000",,10/02/2019,10/02/2019,41.9437895637,-87.6716962355,"(41.9437895636949, -87.67169623550538)"
1457,PB2017A01457,PROPERTY MANAGER,,1433,N,WELLS,ST,7,17-04-205-049-0000,,07/20/2017,07/20/2017,41.9086382031,-87.6344852397,"(41.90863820308877, -87.63448523967695)"
1085,PB2017A01085,Registered Agent,,6949-6951,S,Oglesby,AVE,60,20-24-420-009-0000,,02/03/2017,02/03/2017,41.7684375625,-87.5680594846,"(41.76843756250126, -87.56805948456545)"
870,PB2017A00870,Owner,Lawndale Apartments,3219-3229,W,Douglas,BLVD,,"16-23-221-037-0000, 16-23-221-041-0000",,,08/29/2016,41.8623907444,-87.7064381484,"(41.86239074435278, -87.7064381484087)"
303,PB2016A00303,Property Manager,Wellington Manor Condominium Assoc,429,W,Wellington,AVE,12,14-28-113-036-1001-1012         14-28-113-034-0000,,,08/03/2016,41.9364644271,-87.6406054811,"(41.936464427123646, -87.6406054810591)"
395,PB2016A00395,Registered Agent,Kimbark Condominium Assoc,6101-6107,S,Kimbark,AVE,21,20-14-408-036-1001,,,08/15/2016,41.7840937906,-87.5945831817,"(41.784093790626464, -87.59458318172963)"
1802,PB2017A01802,AUTHORIZED AGENT,PRAIRIE TOWNHOMES of DEARBORN PARK,1341-1357,S,CLARK,ST,78,17212111800000,,08/24/2017,08/24/2017,41.8645939053,-87.6301816494,"(41.86459390526857, -87.63018164943286)"
1370,PB2017A01370,president,640 West Schubert Street Condominium Association,640-642,W,Schubert,AVE,6,14-28-301-024-1001 to 1006,10/19/2016,06/08/2017,06/08/2017,41.9317154703,-87.6461486619,"(41.9317154702759, -87.64614866194653)"
584,PB2016A00584,Authorized Agent,Kenmore Barry Condo Assoc,3103,N,Kenmore,AVE,19,"14-29-203-038-1013-1001-1019, 14-29-210-041-0000 & 14-29-210-042-1001-1003",,09/20/2016,09/29/2016,41.9382211961,-87.655117879,"(41.938221196125184, -87.65511787897903)"
449,PB2016A00449,Authorized Agent,Kinzie Station Condominium Assoc,324-330,N,Jefferson,ST,186,17-09-302-011-1002-1343,,,09/01/2016,41.8875789609,-87.6429729425,"(41.88757896092482, -87.64297294253355)"
254,PB2016A00254,Registered Agent,1600 Museum Park Condominium Assoc,1629,S,Prairie,AVE,274,17-22-304-092-1001-1365,,11/30/2015,08/16/2016,41.8596484202,-87.6206605387,"(41.85964842024526, -87.62066053872472)"
2503,PB2019A02503,Lavinia Shimkus,,3919-3921,N,Linder,AVE,6,13-21-105-001-0000,,03/28/2019,03/28/2019,41.9519974482,-87.7643511217,"(41.95199744822303, -87.76435112174579)"
1288,PB2017A01288,authorized agent,Sangamon Lofts Condo Assoc,913-921,W,Van Buren,ST,81,"17-17-236-013-1001-1007, 1009-1038, 1040-1063, 1065-1070, 1075, 1077-1092",,03/27/2017,03/27/2017,41.8765183366,-87.6501172361,"(41.87651833657723, -87.65011723613162)"
1694,PB2017A01694,authorized agent,33 W. Huron Condo Assoc,33,W,Huron,ST,67,17-09-220-027-0000,,08/11/2017,08/11/2017,41.8947467332,-87.6295597136,"(41.89474673320127, -87.62955971355514)"
688,PB2016A00688,Registered Agent,4100 Marine LLC,4100,N,Marine,DR,190,14-16-304-037-0000,10/05/2016,,10/06/2016,41.9558065803,-87.6457167797,"(41.955806580346994, -87.64571677969191)"
2643,PB2019A02643,Manager,,2411,N,ST LOUIS,AVE,2,13-26-425-015-0000,,10/01/2019,10/01/2019,41.9250069802,-87.7144137931,"(41.92500698022542, -87.71441379313758)"
78,PB2016A00078,President,5000 East End Condominium Assoc,5000,S,East End,AVE,98,20-12-102-008-1001-1098,,12/15/2010,08/01/2016,41.8043197933,-87.5855970603,"(41.80431979330058, -87.58559706030724)"
551,PB2016A00551,Authorized Agent,"RTS Properties LLC, 3817-23 W Schubert Series",3817-3823,W,Schubert,AVE,6,13-26-310-001-0000,,,08/31/2016,41.9299418614,-87.7227276642,"(41.92994186143641, -87.72272766415665)"
1060,PB2017A01060,Registered Agent,,5240,N,Sheridan,RD,220,14-08-212-015-0000-14-08-212-016-0000,,02/02/2017,02/02/2017,41.9776187914,-87.6551689279,"(41.977618791372876, -87.65516892794291)"
118,PB2016A00118,Owner,,1922,N,Cleveland,AVE,3,14-33-305-038-0000,,,08/01/2016,41.9171822002,-87.6413594849,"(41.917182200195676, -87.64135948489452)"
99,PB2016A00099,Authorized Agent,Hartland Park Townhomes I HOA,2620-2656,N,Hartland,CT,35,14-30-403-141-0000                14-30-403-187-0000,,,07/29/2016,41.9293574031,-87.6721008949,"(41.929357403051284, -87.67210089493732)"
245,PB2016A00245,Authorized Agent,Altgeld Commons Lofts Condominium Assoc,2512,N,Bosworth,AVE,35,14-29-311-043-1001-1035,,,07/22/2016,41.9273453272,-87.6671638827,"(41.92734532721824, -87.66716388269737)"
407,PB2016A00407,Authorized Agent,1411 N State Parkway,1411,N,State,PKWY,15,17-03-102-037-1001-1029,,,08/25/2016,41.9081562174,-87.6286434641,"(41.9081562173527, -87.62864346410895)"
799,PB2016A00799,Registered Agent,Parkview at River East,505,N,McClurg,CT,268,17-10-210-010-1001,,,11/01/2006,41.8912365934,-87.617527839,"(41.89123659335269, -87.61752783895781)"
1044,PB2017A01044,property manager,3255 N Paulina Association,3255,N,Paulina,ST,9,14-19-430-027-1001-1018,11/30/2016,02/02/2017,02/02/2017,41.9413162357,-87.6709908063,"(41.94131623566311, -87.6709908062557)"
1993,PB2017A01993,Property Manager,Leland Crossing Condominium Association,3201,W,Leland,AVE,45,13-14-207-040-1000,09/28/2017,09/28/2017,09/28/2017,41.9665191936,-87.7084773497,"(41.966519193583565, -87.7084773497115)"
464,PB2016A00464,Authorized Agent,1744 Henderson Condominium Assoc,1744-1746,W,Henderson,ST,7,14-19-422-047-1001-1012,,,08/17/2016,41.9424844197,-87.6729039916,"(41.94248441972417, -87.6729039915595)"
159,PB2016A00159,Property Manager,One One One Condominium Assoc,111,S,Morgan,ST,166,17-17-212-016-1001-1366,,,08/04/2016,41.8800479701,-87.6518315713,"(41.880047970125254, -87.65183157127098)"
1508,PB2017A01508,registered agent,Barry Cornerstone,621,W,Barry,AVE,17,14-28-107-087-0000,07/25/2017,08/10/2017,08/10/2017,41.9377810498,-87.6451883769,"(41.93778104983129, -87.64518837686437)"
83,PB2016A00083,Authorized Agent,2125 W Pierce Condominiums,2125,W,Pierce,AVE,16,17-06-106-038-1001-1016,,,07/29/2016,41.9091968379,-87.680904024,"(41.90919683785561, -87.68090402404712)"
833,PB2017A00833,Owner,Northtown Village Phase II,728,W,Scott,ST,,17-04-113-100-1101,,,08/29/2016,41.90509145,-87.6472924522,"(41.90509144996638, -87.6472924521834)"
1413,PB2017A01413,President,4012 S.lNDIANA CONDOMINIUM ASSOCIATION,4012,S,Indiana,AVE,8,"20-03-108-034-1001, 20-03-108-034-1002, 20-03-108-034-1003, 20-03-108-034-1004, 20-03-108-034-1005, 20 - 03 - 108 - 034- 1006, 20-03-108-034-1007, 20-03-108-034-1008",,06/30/2017,06/30/2017,41.8215777222,-87.6216920357,"(41.82157772222354, -87.62169203568881)"
264,PB2016A00264,Authorized Agent,1200 Condominium Assoc,1200,N,Lake Shore,DR,56,17-03-114-004-1001-1017        17-03-114-004-1021-1047             17-03-114-004-1050-1057,,08/17/2016,08/17/2016,41.9040223592,-87.6251604244,"(41.90402235915025, -87.6251604243969)"
591,PB2016A00591,Authorized Agent,Chelsea Townhomes,1107,W,Monroe,ST,1,17-17-210-101-0000,,,09/22/2016,41.8802529933,-87.6550052738,"(41.88025299325612, -87.65500527382947)"
2866,PB2019A02866,MANAGER,,4341-4343,S,GREENWOOD,AVE,6,20-02-304-012-0000,,10/02/2019,10/02/2019,41.815715255,-87.5992426813,"(41.815715254966335, -87.59924268131728)"
271,PB2016A00271,Authorized Agent,850 Dewitt Place Condominium Assoc,850,N,DeWitt,PL,213,17-03-227-022-1001-1219,,,08/17/2016,41.8984021906,-87.6203446632,"(41.89840219058591, -87.62034466317886)"
1100,PB2017A01100,authorized agent,2038-48 E. 72nd PL Condo Association,2038-2048,E,72nd,PL,18,"20-25-207-048-1001-1006, 20-25-207-049-1001-1006, 20-25-207-050-1001-1006",,02/14/2017,02/14/2017,41.7635502348,-87.5747259557,"(41.7635502348435, -87.57472595571771)"
489,PB2016A00489,Authorized Agent,Magnolia of Sheridan Park Condominium Assoc,4749-4755,N,Magnolia,AVE,24,14-17-105-024-1000,,,08/29/2016,41.9686333205,-87.6611078624,"(41.9686333205033, -87.6611078623684)"
425,PB2016A00425,Registered Agent,Evelyn Terrace Condominium Assoc,8735,W,Catherine,AVE,20,12-11-102-121-0000,,,08/15/2016,41.9766867175,-87.8453418475,"(41.97668671751074, -87.84534184753598)"
171,PB2016A00171,Agent,630 N State Parkway Condominium,630,N,State,ST,171,17-09-227-030-1001-1370,,,08/05/2016,41.8933156382,-87.6282612017,"(41.89331563822805, -87.62826120172546)"
1618,PB2017A01618,Agent,University Commons IV,1111-1151,W,15th,ST,140,17-20-227-060-1001,,08/10/2017,08/10/2017,41.8615306028,-87.6546251284,"(41.8615306027505, -87.65462512836633)"
908,PB2017A00908,Authorized Agent,Pattington Condo Assoc,660-700,W,Irving Park,RD,84,14-16-305-021-1001-1084,,,08/17/2016,41.9547161727,-87.6470885568,"(41.95471617268791, -87.64708855677901)"
2184,PB2018A02184,Owner,,1700-1708,W,Cornelia,AVE,12,14-19-406-033-0000,,03/22/2018,03/22/2018,41.9452399887,-87.6713159542,"(41.94523998871572, -87.67131595424965)"
3004,PB2019A03004,Manager,The Mews on Dorchester,5648-5656,S,Dorchester,AVE,24,20-14-209-031-1001 to 1025,11/13/2019,11/19/2019,11/19/2019,41.7918713111,-87.5917515993,"(41.79187131113578, -87.59175159930058)"
782,PB2016A00782,Owner,Staircase LLC Reside 707,717,W,Sheridan,RD,142,"14-21-102-004-0000, 14-21-102-005-0000, 14-21-102-006-0000, 14-21-102-031-0000",,,10/11/2016,41.9526955487,-87.648604649,"(41.95269554866288, -87.6486046490392)"
2435,PB2018A02435,Owner,,947-953,N,Kedzie,AVE,6,16-01-313-001-0000,,11/19/2018,11/19/2018,41.8988219895,-87.7065152004,"(41.89882198951364, -87.7065152003875)"
182,PB2016A00182,Authorized Agent,Museum Park Lofts HOA,125,E,13th,ST,149,17-22-105-039-1001-1300,,01/01/2004,08/01/2016,41.8656875206,-87.623193617,"(41.865687520629216, -87.62319361698975)"
765,PB2016A00765,Authorized Agent,Waterford Condominium,4170,N,Marine,DR,252,14-16-304-039-1001-1252,,,09/12/2016,41.9575726559,-87.6464026045,"(41.95757265588964, -87.64640260453923)"
2981,PB2019A02981,manager,,2920-2922,N,albany,AVE,14,13-25-120-027-0000,,10/30/2019,10/30/2019,41.9345279806,-87.7051912137,"(41.934527980587696, -87.70519121372207)"
2827,PB2019A02827,manager,,4517,N,MIlwaukee,AVE,18,13-16-218-001-0000,,10/02/2019,10/02/2019,41.9629631079,-87.7563229226,"(41.962963107905765, -87.75632292261513)"
1507,PB2017A01507,Property Manager,Malibu East Condominium,6033,N,Sheridan,RD,499,14-05-215-017-1000,,08/09/2017,08/09/2017,41.9919287559,-87.6552963956,"(41.99192875594554, -87.65529639558433)"
3035,PB2019A03035,PROPERTY MANAGER,5340 HYDE PARK ASSOCIATION,5340-5344,S,HYDE PARK,BLVD,12,20-12-111-025-1001 thru -1012,09/30/2019,12/18/2019,12/18/2019,41.7983381947,-87.5841698308,"(41.79833819470344, -87.58416983083082)"
968,PB2017A00968,Authorized Agent,Leland Place,3434-3440,W,Leland,AVE,9,13-14-202-035-1001-1009,01/12/2017,,01/19/2017,41.9666774543,-87.7147558212,"(41.96667745425432, -87.71475582119538)"
351,PB2016A00351,Managing Agent,Lofts at Museum Park HOA,1305,S,Michigan,AVE,202,17-22-105-045-1001-1430,,,08/04/2016,41.8655949512,-87.6239644472,"(41.86559495120841, -87.62396444716028)"
466,PB2016A00466,Authorized Agent,Merrimac Square III Condominium Assoc,6530,W,Irving Park,RD,50,13-18-409-034-1001-050,,,08/17/2016,41.9529640201,-87.7902052305,"(41.952964020113015, -87.79020523046137)"
1552,PB2017A01552,authorized agent,North Town Village Condo Assoc,728-730,W,Eastman,ST,145,17-04-113-100-1062-1063,,08/10/2017,08/10/2017,41.9068611277,-87.6472359914,"(41.9068611276749, -87.64723599138345)"
3014,PB2019A03014,Attorney,Belden Place Condo Association,2305-2311,N,Kimball,AVE,21,13-35-206-036-1001 to 13-35-206-036-1014,,11/26/2019,11/26/2019,41.9230007981,-87.711908604,"(41.92300079813724, -87.71190860398615)"
614,PB2016A00614,Authorized Agent,Chelsea Townhomes,1117 #19,W,Monroe,ST,1,17-17-210-078-0000,,,09/22/2016,41.8802470942,-87.6553839969,"(41.880247094162456, -87.6553839968631)"
3392,PB2024A03392,Property Manager,La Grande Dame Condominium Association,2020-2026,W,GRAND,AVE,12,17-07-124-039-1001,,09/25/2024,09/25/2024,41.8909186218,-87.6777923701,"(41.89091862183208, -87.6777923700984)"
2054,PB2017A02054,Board President,Commodore Green Briar Landmark C.A.,559,W,Surf,ST,78,14-28-122-017-1001-1271,07/31/2017,11/17/2017,11/17/2017,41.9341522879,-87.6437180494,"(41.93415228786887, -87.64371804940481)"
1577,PB2017A01577,authorized agent,North Town Village Condo Assoc,1340-1344,N,Burling,ST,145,17-04-113-100-1116-1118,,08/10/2017,08/10/2017,41.9060072876,-87.6474770216,"(41.90600728762788, -87.64747702159394)"
1104,PB2017A01104,Registered Agent,1022 West Dakin LLC,1022,W,Dakin,ST,14,"14-20-201-021-0000, 14-20-201-033-1008, 14-20-201-033-1008, 14-20-201-033-1005, 14-20-201-033-1009, 14-20-201-033-1006, 14-20-201-033-1010, 14-20-201-033-1007, 14-20-201-033-1004",02/14/2017,02/14/2017,02/14/2017,41.9536076705,-87.655426048,"(41.95360767047118, -87.65542604795503)"
629,PB2016A00629,Authorized Agent,Chelsea Townhomes,1137 #5,W,Monroe,ST,1,17-17-210-063-0000,,,09/22/2016,41.8802352922,-87.6561414428,"(41.88023529222652, -87.6561414427707)"
2101,PB2017A02101,President,,701,W,Jackson,BLVD,45,17-16-116-031-1035,,12/20/2017,12/20/2017,41.8778773393,-87.6440731928,"(41.87787733930799, -87.64407319281398)"
385,PB2016A00385,Authorized Agent,1440-44 W Fullerton Condominium Assoc,1440-1444,W,Fullerton,AVE,12,14-29-319-057-1001-1012,,08/22/2016,08/23/2016,41.9253057816,-87.664905596,"(41.92530578160609, -87.66490559595181)"
121,PB2016A00121,Authorized Agent,Lofts at Cityfront Plaza Condominium Assoc,240,E,Illinois,ST,42,17-10-212-031-1001-1042,,10/30/2006,08/01/2016,41.8910996167,-87.6209676381,"(41.89109961666442, -87.62096763810514)"
1073,PB2017A01073,Registered Agent,,5326,S,Cornell,AVE,64,20-12-110-005-0000,,02/03/2017,02/03/2017,41.7987697433,-87.5856465741,"(41.798769743259584, -87.58564657406447)"
2162,PB2018A02162,authorized agent,Prairie Avenue Lofts Condo Assoc,221,E,Cullerton,ST,138,17-22-314-033-1001-1280,11/14/2016,03/01/2018,03/01/2018,41.8554146773,-87.6214173367,"(41.855414677320745, -87.62141733666955)"
1664,PB2017A01664,Agent,1808 W. Patterson,1808,W,Patterson,AVE,6,14-19-226-016-0000,,08/11/2017,08/11/2017,41.9480095694,-87.674909037,"(41.948009569424606, -87.67490903698011)"
2750,PB2019A02750,Manager,,3205-3211,N,Central,AVE,4,13-21-327-017-0000,,10/02/2019,10/02/2019,41.9387498163,-87.7663588686,"(41.938749816299925, -87.76635886859474)"
304,PB2016A00304,Property Manager,Waynewood Condominium Assoc,5452-5462,N,Wayne,AVE,18,14-05-327-040-1001-1018,,,08/03/2016,41.9814783645,-87.6638458241,"(41.981478364507794, -87.66384582408647)"
2606,PB2019A02606,Property Manager,Cullerton Station Condomium Association,1909-1935,S,State,ST,56,17-22-305-053-1001 through 17-22-305-01056,,09/27/2019,09/27/2019,41.8562757846,-87.6270206061,"(41.85627578462746, -87.62702060610299)"
880,PB2017A00880,Registered Agent,Buck City Lofts Condo Assoc,1740,N,Maplewood,AVE,90,13-36-421-040-1001-1190,09/28/2016,,11/19/2016,41.9132859095,-87.6911099206,"(41.913285909497155, -87.69110992062578)"
2968,PB2019A02968,property manager,,1463,W,chicago,AVE,3,17-08-101-006-0000,,10/30/2019,10/30/2019,41.8960028555,-87.6647800341,"(41.89600285553933, -87.66478003407676)"
1846,PB2017A01846,Owner,,2557,N,Halsted,ST,2,14-28-311-090-0000,,09/01/2017,09/01/2017,41.9289789845,-87.6487377536,"(41.92897898453973, -87.64873775358542)"
1537,PB2017A01537,authorized agent,North Town Village Condo Assoc,1311,N,Burling,ST,145,17-04-113-100-1039,,08/10/2017,08/10/2017,41.9052860587,-87.6471644048,"(41.90528605869917, -87.6471644047589)"
572,PB2016A00572,Authorized Agent,University Commons III,1001-1071,W,15th,ST,196,17-20-227-059-1001-1392,,02/28/2006,09/27/2016,41.8615999221,-87.651031594,"(41.861599922112624, -87.65103159403266)"
1629,PB2017A01629,Agent,Presidential Towers,625,W,Madison,ST,2346,17-16-102-029-0000,,08/10/2017,08/10/2017,41.881714692,-87.6437877707,"(41.881714691962095, -87.64378777065846)"
2667,PB2019A02667,Manager,,1251,W,belden,AVE,25,14-32-112-052-0000,,10/02/2019,10/02/2019,41.9233423974,-87.6604268465,"(41.92334239739844, -87.66042684648224)"
1787,PB2017A01787,Authorized Agent,,1017-1019,W,Winona,ST,23,14-08-406-001-0000,,08/22/2017,08/22/2017,41.9751599732,-87.6557223869,"(41.97515997317251, -87.65572238686447)"
1745,PB2017A01745,President,1010 Lake Shore Assoc,129,E,Bellevue,PL,184,17-03-204-063-1001-1183,,08/15/2017,08/15/2017,41.9015026425,-87.6246088614,"(41.90150264254174, -87.62460886138517)"
3239,PB2022A03239,Property Manager,Seminary Court Townhomes,2701-2719,N,Lincoln,AVE,26,14-29-400-041-0000 thru 14-29-400-067-0000,02/15/2022,06/24/2022,06/24/2022,41.9309340541,-87.6562255426,"(41.93093405407393, -87.65622554261698)"
1198,PB2017A01198,Vice President,,536,W,Addison,ST,108,14-21-110-010-0000,,03/03/2017,03/03/2017,41.9482768325,-87.6448781266,"(41.948276832456244, -87.64487812656894)"
100,PB2016A00100,Authorized Agent,Hartland Park Townhomes II HOA,1713-1725,W,Schubert,AVE,45,14-30-403-212-0000                14-30-403-256-0000,,,07/29/2016,41.9310555293,-87.6713267545,"(41.931055529326464, -87.67132675454278)"
2337,PB2018A02337,President of the Board,The Fremont Condominum Association,3810,N,Fremont,ST,3,"14-20-213-022-1001, 14-20-213-022-1002, 14-20-213-022-1003",07/02/2018,07/05/2018,07/05/2018,41.9515285977,-87.6521781364,"(41.95152859774313, -87.65217813637952)"
375,PB2016A00375,President,611 S. Wells Street Condominium Assoc,611,S,Wells,ST,232,17-16-402-063-1001-1471,,,08/19/2016,41.8742429872,-87.6334765303,"(41.874242987183976, -87.63347653027343)"
840,PB2017A00840,Owner,Northtown Village Phase II,1334,N,Burling,ST,,17-04-113-100-1123,,,08/29/2016,41.9058418073,-87.6474726666,"(41.90584180730448, -87.64747266655034)"
1963,PB2017A01963,Registered Agent,,1255,W,Bryn Mawr,AVE,36,1408105001,,09/20/2017,09/20/2017,41.9834795589,-87.6622691555,"(41.98347955889445, -87.66226915550905)"
3190,PB2021A03190,Owner,,910-918,W,Dakin,ST,62,14-20-202-017-0000,,11/03/2021,11/03/2021,41.953721289,-87.6525645664,"(41.95372128897751, -87.65256456637684)"
1619,PB2017A01619,AUTHORIZED AGENT,WINONA CONDOMINIUM,1518-1520,W,WINONA,ST,15,14083000151015,07/19/2016,08/10/2017,08/10/2017,41.9753626246,-87.6691227015,"(41.97536262455316, -87.6691227015438)"
3021,PB2019A03021,Property Manager,,1556,W,95th,ST,14,25-05-324-048-0000,,12/02/2019,12/02/2019,41.7213257508,-87.6626250979,"(41.7213257508329, -87.66262509787585)"
846,PB2017A00846,Owner,Northtown Village Phase II,1416,N,Burling,ST,,17-04-113-100-1002,,,08/29/2016,41.9068362322,-87.6474996326,"(41.906836232159016, -87.64749963263148)"
3016,PB2019A03016,Property Manager,,2954,N,Troy,ST,12,13-25-119-021-0000,,11/27/2019,11/27/2019,41.9354834785,-87.7064399264,"(41.9354834784729, -87.7064399263548)"
896,PB2017A00896,Authorized Agent,State Place Centre CA,1601,S,State,ST,55,17-22-300-077-1001-1099,,,08/08/2016,41.8601212216,-87.6271146684,"(41.860121221610186, -87.62711466837658)"
7,PB2016A00007,President,30 West Oak,30,W,Oak,ST,45,17-04-424-055-1001-1045,,10/08/2006,07/18/2016,41.9006879855,-87.6294972486,"(41.90068798554529, -87.62949724857376)"
577,PB2016A00577,Owner,Scott St. Plaza,65,E,Scott,ST,230,17-03-113-015-0000,,,09/27/2016,41.9047870754,-87.6261790114,"(41.90478707543556, -87.62617901139323)"
1789,PB2017A01789,Owner,,3153,N,Hudson,AVE,4,14-28-103-024-0000,,08/23/2017,08/23/2017,41.939301,-87.6407530013,"(41.93930099997102, -87.64075300126714)"
1639,PB2017A01639,Agent,Clifton Crossing Condo Assn.,1122-1124,W,Wellington,AVE,19,14-29-208-055-1001,,08/11/2017,08/11/2017,41.9363298544,-87.6573991675,"(41.93632985443651, -87.65739916754002)"
1576,PB2017A01576,Agent,Fulton Court Condo Association,300,N,DesPlaines,ST,48,17-09-308-004-1001,,08/10/2017,08/10/2017,41.8868340521,-87.6444236206,"(41.886834052075095, -87.64442362063004)"
3377,PB2024A03377,Property Manager,Kenmore Corner Condominium Association,4800-4808,N,KENMORE,AVE,33,14-08-415-073-1001,,09/25/2024,09/25/2024,41.9691956453,-87.6563666998,"(41.96919564534854, -87.65636669983598)"
847,PB2017A00847,Owner,Northtown Village Phase II,1426,N,Burling,ST,,17-04-113-100-1007,,,08/29/2016,41.9071577641,-87.6475085767,"(41.90715776411113, -87.64750857674659)"
913,PB2017A00913,President,Hampden Tower Condo Assoc,2754,N,Hampden,CT,128,14-28-308-030-1001-1259,,,10/26/2016,41.9322593213,-87.6425629465,"(41.93225932129095, -87.64256294648276)"
596,PB2016A00596,Authorized Agent,Chelsea Townhomes,1117 #1,W,Monroe,ST,1,17-17-210-096-0000,,,09/22/2016,41.8802470942,-87.6553839969,"(41.880247094162456, -87.6553839968631)"
922,PB2017A00922,Board Secretary,2700 Club Condominiums,2700,N,Halsted,ST,48,14-29-407-105-1001-1048,,,12/14/2016,41.9315732915,-87.6491188506,"(41.93157329151902, -87.64911885057478)"
109,PB2016A00109,Authorized Agent,Lunt at the Park Condominium Assoc,2654-2656,W,Lunt,AVE,15,10-36-211-034-1001-1015,,,07/29/2016,42.0086253434,-87.6971053844,"(42.00862534343065, -87.69710538440577)"
63,PB2016A00063,Authorized Agent,4444 W Belmont Condos,444,W,Belmont,AVE,13,14-21-314-058-1001-1016,,10/16/1998,07/22/2016,41.9401989597,-87.6414936265,"(41.94019895970262, -87.64149362654192)"
168,PB2016A00168,President,Plaza on DeWitt Condominium Assoc,260,E,Chestnut,ST,407,17-03-222-023-1001-1393        17-03-222-023-1395               17-03-222-023-1397               17-03-222-023-1414,,,07/28/2016,41.8985644734,-87.6194705779,"(41.89856447342598, -87.61947057794758)"
943,PB2017A00943,Registered Agent,Lake Point Tower Condo Assoc,505,N,Lake Shore,DR,875,17-10-214-016-1001-1876,07/21/2016,,12/19/2016,41.8912792935,-87.6141075333,"(41.89127929349215, -87.61410753333017)"
1556,PB2017A01556,authorized agent,North Town Village Condo Assoc,714,W,Evergreen,AVE,145,17-04-113-100-1069-1070,,08/10/2017,08/10/2017,41.906475262,-87.6463143323,"(41.906475261992455, -87.64631433228112)"
1264,PB2017A01264,Registered Agent,,6526-6540,N,Lakewood,AVE,68,11-32-320-007-0000,,03/27/2017,03/27/2017,42.0009768285,-87.6636363543,"(42.00097682847057, -87.66363635427153)"
387,PB2016A00387,Property Manager,5302-5312 S Cornell Ave,5302-5312,S,Cornell,AVE,19,20-12-110-034-1001-1015,,,08/03/2016,41.7994631371,-87.5856597664,"(41.79946313707875, -87.58565976641292)"
1625,PB2017A01625,Attorney,Columbia Place Townhomes Condo Assn,2849-2905,N,Hermitage,AVE,64,14-30-223-276-1001,,08/10/2017,08/10/2017,41.9337982878,-87.6722900647,"(41.933798287751145, -87.67229006472019)"
432,PB2016A00432,Registered Agent,St. Wenceslaus Square Townhomes,3433-3459,N,Lawndale,AVE,54,13-23-315-052-0000,,,08/15/2016,41.9438271476,-87.7198374949,"(41.943827147584415, -87.71983749487643)"
2694,PB2019A02694,Manager,,2022,W,Fargo,AVE,19,11-30-313-017-0000,,10/02/2019,10/02/2019,42.016582018,-87.6815074956,"(42.016582017966186, -87.68150749557365)"
1204,PB2017A01204,Board Secretary,512 W Belden Association,512,W,Belden,AVE,26,14-33-104-085-1001-1026,11/22/2016,03/03/2017,03/03/2017,41.9238386299,-87.6420040942,"(41.92383862993253, -87.64200409422078)"
1788,PB2017A01788,Association President,2413 W. Haddon Condominium,2413,W,Haddon,AVE,3,16-01-407-020-0000,,08/23/2017,08/23/2017,41.9019716194,-87.6875851176,"(41.90197161936752, -87.68758511764649)"
334,PB2016A00334,Property Manager,Albany George Condominium Assoc,3105-3109,W,George,ST,16,13-25-813-042-1001-1016,,,08/03/2016,41.9337618937,-87.7052562814,"(41.93376189371065, -87.70525628140705)"
2495,PB2019A02495,Lavinia Shimkus,,6830-6834,N,Ashland,BLVD,18,11-31-226-041-0000,,03/28/2019,03/28/2019,42.0063200114,-87.670128261,"(42.00632001138462, -87.67012826102)"
665,PB2016A00665,Authorized Agent,VB 1224 Lofts Condo Assoc,1224,W,Van Buren,ST,189,17-17-117-045-1001-1348,09/30/2016,,09/30/2016,41.8766123882,-87.6580375753,"(41.87661238820148, -87.65803757533364)"
1115,PB2017A01115,property manager,Oak Terrace Condo Assoc,435,W,Oakdale,AVE,22,14-28-118-051-1001-1044,,02/15/2017,02/15/2017,41.9354688869,-87.6407962253,"(41.935468886862196, -87.64079622531835)"
612,PB2016A00612,Authorized Agent,Chelsea Townhomes,1117 #17,W,Monroe,ST,1,17-17-210-080-0000,,,09/22/2016,41.8802470942,-87.6553839969,"(41.880247094162456, -87.6553839968631)"
179,PB2016A00179,Property Manager,Lake Meadow Townhomes I,506-556,E,32nd,ST,38,"17-34-224-005-0000 thru     17-34-224-018-0000
17-34-224-020-0000 thru     17-34-224-033-0000
17-34-224-035-0000
17-34-224-040-0000 thru      17-34-224-045-0000
17-34-224-048-0000 thru      17-34-224-050-0000",,,08/09/2016,41.8361762513,-87.6132048201,"(41.83617625134183, -87.61320482014771)"
1706,PB2017A01706,AUTHORIZED AGENT,WRIGHTWOOD BURLING PLACE CONDOMINIUM ASSOCIATION,2602-2608,N,BURLING,ST,31,14283020531036,,08/11/2017,08/11/2017,41.9292677555,-87.6478171721,"(41.92926775554836, -87.64781717208332)"
506,PB2016A00506,Authorized Agent,The Regatta Condominium Assoc,420,E,Waterside,DR,321,17-10-400-035-1001-1655,,,09/07/2016,41.887026634,-87.6165892303,"(41.88702663401338, -87.61658923034804)"
313,PB2016A00313,Property Manager,Leland Manor Condominium Assoc,2857-2861,W,Leland,AVE,18,13-13-111-030-1001-1018,,,08/03/2016,41.9665789103,-87.7010813566,"(41.96657891027072, -87.70108135663625)"
151,PB2016A00151,Managing Agent,Wells Street Tower Condominium Assoc,701,S,Wells,ST,170,17-16-402-016-0000               17-16-402-017-0000               17-16-402-018-0000               17-16-402-019-0000,,04/29/2002,07/27/2016,41.8732556947,-87.6334542164,"(41.873255694732016, -87.63345421635972)"
2964,PB2019A02964,property manager,,8001,S,Dobson,AVE,15,20-35-112-001-0000,,10/29/2019,10/29/2019,41.7494341265,-87.5989246863,"(41.749434126463726, -87.59892468626389)"
2409,PB2018A02409,Chief Financial Officer,,3158-3180,N,Clark,ST,63,14-29-204-034-0000,,10/12/2018,10/12/2018,41.9392001021,-87.6502389586,"(41.93920010207087, -87.65023895855697)"
2523,PB2019A02523,Registered Agent,,6719-6729,S,MERRILL,AVE,12,20-24-403-025-1001,,05/21/2019,05/21/2019,41.7728916959,-87.5726660787,"(41.77289169585089, -87.57266607869504)"
599,PB2016A00599,Authorized Agent,Chelsea Townhomes,1117 #4,W,Monroe,ST,1,17-17-210-093-0000,,,09/22/2016,41.8802470942,-87.6553839969,"(41.880247094162456, -87.6553839968631)"
1295,PB2017A01295,President,Landmark Village Homeowner Association,2811-2911,N,Wolcott,AVE,198,"14-30-222-112-0000 thru 14-30-222-168-0000, 14-30-222-173-1031 thru 14-30-222-173-1048, 14-30-222-173-1059 thru 14-30-222-173-1145",,03/28/2017,03/28/2017,41.9326835998,-87.6755503021,"(41.93268359976172, -87.67555030206553)"
2331,PB2018A02331,"Deborah G. Cole, President of 1400 N. Lasalle Condominium Assoc.",1400 N.  La Salle Condominium Association,1400-1402,N,La Salle,DR,8,17-04-205-05401001 - 1008,04/25/2017,06/11/2018,06/11/2018,41.9077733432,-87.6331949479,"(41.9077733432312, -87.63319494789086)"
679,PB2016A00679,Board President,Parc Loft Condominiums at Spaulding Assoc,1820,N,Spaulding,AVE,49,13-35-409046-1001-1104,,,08/18/2016,41.9143740846,-87.7103488451,"(41.9143740846432, -87.71034884512744)"
1621,PB2017A01621,AUTHORIZED AGENT,WINONA CONDOMINIUM,5135-5139,N,ASHLAND,AVE,15,14083000151015,07/19/2016,08/10/2017,08/10/2017,41.9753598043,-87.6694521226,"(41.97535980432272, -87.66945212263295)"
1668,PB2017A01668,Authorized Agent,Lunt at the Park Condiminium Association,7007-7011,N,Washtenaw,AVE,15,103621103410011015,,08/11/2017,08/11/2017,42.0087421952,-87.6972219799,"(42.00874219522912, -87.69722197989567)"
1897,PB2017A01897,authorized agent,,1443,S,Clark,ST,1,17-21-211-019-0000,,09/11/2017,09/11/2017,41.8628119694,-87.6301324062,"(41.86281196941529, -87.63013240624825)"
3386,PB2024A03386,Property Manager,3530 North Southport Condominium Association,3530,N,SOUTHPORT,AVE,8,14-20-303-032-1001,,09/25/2024,09/25/2024,41.9460955782,-87.6641373079,"(41.946095578194154, -87.66413730785669)"
2736,PB2019A02736,Manager,,3968,N,avondale,AVE,3,13-22-203-026-0000,,10/02/2019,10/02/2019,41.9531084148,-87.7316205445,"(41.95310841481873, -87.73162054450827)"
3314,PB2023A03314,Property Manager,15 S Throop Condo Assoc,15,S,Throop,ST,46,17-17-105-064-1018,04/24/2023,04/25/2023,04/25/2023,41.8810344833,-87.6594057416,"(41.881034483348174, -87.6594057415689)"
1935,PB2017A01935,authorized agent,,3558,S,Dearborn,ST,1,17334260144016,,09/12/2017,09/12/2017,41.8292359004,-87.6282071097,"(41.829235900421, -87.62820710968465)"
691,PB2016A00691,Registered Agent,Dearborn I LLC,1036,N,Dearborn,ST,135,17-04-423-008-0000,10/05/2016,,10/06/2016,41.9017355869,-87.630067919,"(41.9017355868964, -87.63006791899414)"
296,PB2016A00296,Property Manager,Peterson Lofts Condominium Assoc,523,S,Plymouth,CT,49,17-16-247-063-1001-1081,,,08/03/2016,41.8752073626,-87.6285488155,"(41.87520736263078, -87.6285488155018)"
1089,PB2017A01089,authorized agent,Park Astor Condo Assoc,1515,N,Astor,ST,50,17-03-101-027-1001-1074,,02/06/2017,02/06/2017,41.9099961024,-87.627475802,"(41.90999610241103, -87.62747580196495)"
2645,PB2019A02645,Manager,,3045,N,Clifton,AVE,5,14-29-208-006-0000,,10/01/2019,10/01/2019,41.9375525918,-87.6575252679,"(41.93755259176071, -87.65752526794748)"
790,PB2016A00790,Authorized Agent,110 E. Delaware Condo Assoc,110,E,Delaware,PL,68,17-03-211-022-1070,10/13/2016,,10/13/2016,41.8992985777,-87.6255983853,"(41.89929857768738, -87.62559838527199)"
2434,PB2018A02434,Owner,,2631,W,Augusta,BLVD,6,16-01-418-009-0000,,11/19/2018,11/19/2018,41.8992102061,-87.6931320992,"(41.89921020610814, -87.69313209922575)"
2309,PB2018A02309,Owner,,1840,W,Augusta,BLVD,6,17-06-415-040-0000,,04/25/2018,04/25/2018,41.8997166509,-87.6738933135,"(41.89971665089839, -87.67389331353051)"
574,PB2016A00574,Authorized Agent,University Commons V,1110-1150,W,15th,ST,128,17-20-225-053-1001-1254,,12/10/2007,09/27/2016,41.8617500735,-87.6546321451,"(41.86175007347823, -87.65463214511391)"
3201,PB2021A03201,Registered Agent,1037 WEST MADISON CONDOMINIUM ASSOCIATION,1037,W,Madison,ST,3,17-17-203-033-1004,,11/09/2021,11/09/2021,41.8815711761,-87.6535329061,"(41.88157117613349, -87.65353290610548)"
2187,PB2018A02187,Managing Agent,Apex Condo Association,859,W,Erie,ST,55,17-08-235-049-1001-1112,,03/23/2018,03/23/2018,41.893235728,-87.6500192366,"(41.893235727961915, -87.65001923662217)"
1090,PB2017A01090,authorized agent,The Churchill,1255,N,State,PKWY,66,17-03-109-033-1002-1068,,02/06/2017,02/06/2017,41.9055735911,-87.6285865148,"(41.90557359113116, -87.62858651479064)"
2599,PB2019A02599,Manager,,712,W,14th,ST,122,17-21-114-011-0000,,09/25/2019,09/25/2019,41.863700557,-87.6453459043,"(41.863700556983716, -87.6453459042528)"
3138,PB2021A03138,Kalabich Management,,2951-2959,E,82ND,ST,22,21-31-228-012 thru 016-0000,,03/30/2021,03/30/2021,41.7463574401,-87.5519762709,"(41.74635744013259, -87.55197627094182)"
2506,PB2019A02506,Lavinia Shimkus,,6134,N,Washtenaw,AVE,8,13012170260000,,03/28/2019,03/28/2019,41.993244502,-87.6972027942,"(41.99324450202522, -87.69720279419026)"
510,PB2016A00510,Authorized Agent,Grand Orleans Condominium Assoc,330,W,Grand,AVE,98,17-09-236-026-1001-1251,,08/30/2016,08/31/2016,41.891658154,-87.6368791854,"(41.8916581540102, -87.63687918536839)"
155,PB2016A00155,Board President,Carl Sandburg Village Condominium Assoc #7,1555-1560,N,Sandburg,TER,616,17-04-207-087-1001-1615,,,08/02/2016,41.9109378132,-87.6323175466,"(41.910937813181995, -87.63231754656579)"
1729,PB2017A01729,authorized agent,Pine Grove Court Condo Assoc,601,W,Addison,ST,55,14-21-109-017-1001,,08/14/2017,08/14/2017,41.9478000199,-87.6455744952,"(41.94780001988993, -87.645574495175)"
2688,PB2019A02688,Manager,,1501,N,Talman,AVE,7,16-01-203-022-0000,,10/02/2019,10/02/2019,41.9085229885,-87.6931359652,"(41.90852298850564, -87.69313596518053)"
1337,PB2017A01337,authorized agent,1000 West Washington Lofts Condo Assoc,1000,W,Washington,BLVD,180,17-08-438-006-0000,,05/05/2017,05/05/2017,41.8831718348,-87.6521331004,"(41.88317183484875, -87.65213310038212)"
140,PB2016A00140,Board President,4300 Marine Drive Condo Assoc,4300,N,Marine,DR,90,14-16-300-027-1001-1090,,07/28/2016,08/02/2016,41.9610482959,-87.646971344,"(41.96104829587564, -87.64697134397929)"
1949,PB2017A01949,Registered Agent,,523-531,W,Fullerton,PKWY,34,1433104009,,09/18/2017,09/18/2017,41.9254473941,-87.6422854176,"(41.92544739405317, -87.64228541760593)"
2412,PB2018A02412,Owner,,1453,W,THOMAS,ST,6,17-05-308-033-0000,,10/18/2018,10/18/2018,41.901464077,-87.6645748412,"(41.901464077038106, -87.66457484122165)"
757,PB2016A00757,Authorized Agent,525 W. Hawthorne Place Condo Assoc,525,W,Hawthorne,PL,232,14-21-307-061-1002-1384,,,10/19/2016,41.944530999,-87.6423370701,"(41.944530999040424, -87.64233707009666)"
2477,PB2019A02477,Secretary,1456 N Greenview Condo Association,1456,N,Greenview,AVE,5,"17-05-108-025-0000,  17-05-108-026-0000",,03/05/2019,03/05/2019,41.9086931049,-87.6653430886,"(41.908693104905, -87.66534308864117)"
1620,PB2017A01620,Agent,Block X Condo Assn,1141-1151,W,Washington,BLVD,99,17-08-443-042-1001,,08/10/2017,08/10/2017,41.8828849315,-87.6559607939,"(41.8828849314506, -87.65596079393674)"
3382,PB2024A03382,Property Manager,Paulina Row Condominium Association,6414-6416,N,PAULINA,ST,16,11-31-419-034-1001,,09/25/2024,09/25/2024,41.9985149897,-87.6724363584,"(41.9985149896637, -87.67243635841379)"
1222,PB2017A01222,Attorney,Vanguard Lofts Condominium Association,1250,W,Van Buren,ST,100,17-17-117-036-1001 to 17-17-117-036-1198,,03/10/2017,03/10/2017,41.8765950142,-87.659005533,"(41.87659501417766, -87.65900553300332)"
3081,PB2020A03081,Attorney,Belden Place Condominium Association,3332-3334,W,BELDEN,AVE,21,13-035-206-036-1015 thru 13-35-206-036-1021,,07/23/2020,07/23/2020,41.9229480644,-87.7118087538,"(41.92294806436858, -87.71180875375323)"
1724,PB2017A01724,AGENT,VITA AGIATA CONDOMINIUM ASSOCIATION,7429-7431,N,GREENVIEW,AVE,20,1293110291000,,08/11/2017,08/11/2017,42.0169473293,-87.6680224774,"(42.01694732933718, -87.66802247743004)"
2982,PB2019A02982,manager,,3025-3027,N,harlem,AVE,9,: 13-30-109-054-0000,,10/30/2019,10/30/2019,41.9351798195,-87.8065012344,"(41.93517981948446, -87.8065012343954)"
664,PB2016A00664,Registered Agent,1555 N Dearborn Condo Assoc,1558,N,Dearborn,ST,90,17-04-210-031-1001-1108,08/16/2016,,10/05/2016,41.9111117405,-87.6303511238,"(41.91111174052472, -87.63035112382713)"
2244,PB2018A02244,Property Manager,,3905-3929,N,Western,AVE,39,14-19-100-029-0000,,04/03/2018,04/03/2018,41.9523569519,-87.6882719583,"(41.9523569518767, -87.68827195827028)"
1118,PB2017A01118,President,Lakewood Commons West Condo Assoc,1326-1330,W,Belden,AVE,50,147-32-105-019-1001-1099,01/31/2017,02/15/2017,02/15/2017,41.9235455465,-87.6618543375,"(41.923545546503235, -87.66185433754927)"
1894,PB2017A01894,authorized agent,,1437,S,Clark,ST,1,17-21-211-030-0000,,09/11/2017,09/11/2017,41.8629708315,-87.6301364509,"(41.86297083147163, -87.63013645091156)"
355,PB2016A00355,Registered Agent,565 West Quincy Condominium Assoc,565,W,Quincy,ST,241,17-16-113-015-0000-1241,,08/01/2016,08/15/2016,41.8785357748,-87.642219133,"(41.87853577479779, -87.64221913304229)"
957,PB2017A00957,Authorized Agent,Grand Kingsbury LLC,520,N,Kingsbury,ST,420,17-09-130-008-0000,,,01/09/2017,41.8912307869,-87.6398459931,"(41.891230786934514, -87.63984599312703)"
2686,PB2019A02686,Manager,,2724,N,kimball,AVE,12,13-26-403-030-0000,,10/02/2019,10/02/2019,41.9309019629,-87.7124162997,"(41.9309019628835, -87.71241629973869)"
657,PB2016A00657,Authorized Agent,Chelsea Townhomes,109,S,Racine,AVE,1,17-17-210-035-0000,,,09/22/2016,41.880027411,-87.6569433757,"(41.880027410959286, -87.65694337571706)"
1265,PB2017A01265,Registered Agent,,1549-1555,W,North Shore,AVE,16,11-32-308-001-0000,,03/27/2017,03/27/2017,42.0034470956,-87.6700607972,"(42.003447095599434, -87.67006079719506)"
1075,PB2017A01075,Registered Agent,,869,W,Buena,AVE,167,14-17-414-001-0000,,02/03/2017,02/03/2017,41.9583453293,-87.6525656177,"(41.958345329333504, -87.65256561765858)"
2802,PB2019A02802,MANAGER,,5600,S,DORCHESTER,AVE,12,20-14-209-015-0000,,10/02/2019,10/02/2019,41.793233793,-87.5917859965,"(41.79323379296717, -87.59178599654675)"
1257,PB2017A01257,Property Manager,,1100,W,Roscoe,ST,36,14-20-411-031-0000,,03/27/2017,03/27/2017,41.9436405871,-87.6567081753,"(41.94364058712861, -87.65670817533245)"
2679,PB2019A02679,Manager,,1907,N,sheffield,AVE,6,14-32-407-026-0000,,10/02/2019,10/02/2019,41.916235357,-87.6531573636,"(41.916235356963156, -87.65315736357663)"
127,PB2016A00127,Authorized Agent,415 Condominium Assoc,415,W,Aldine,AVE,60,14-21-312-045-0000,,,07/28/2016,41.9421711177,-87.6405591333,"(41.942171117689924, -87.64055913334448)"
2971,PB2019A02971,property manager,,1418,N,mohawk,ST,6,17-04-121-042-0000,,10/30/2019,10/30/2019,41.9081920707,-87.6422831879,"(41.90819207071422, -87.64228318788456)"
2712,PB2019A02712,Manager,,4901,W,cullom,AVE,18,13-16-409-024-0000,,10/02/2019,10/02/2019,41.9587542458,-87.7500529683,"(41.95875424577765, -87.75005296827771)"
1513,PB2017A01513,Registered Agent,,2801,N,WOLCOTT,AVE,999,99999999999999,,08/10/2017,08/10/2017,41.932368834,-87.6755222129,"(41.932368834029006, -87.67552221287711)"
93,PB2016A00093,Authorized Agent,3546-48 N Janssen,3546-3548,N,Janssen,AVE,19,14-20-302-031-1001-1019,,,07/29/2016,41.9466152883,-87.6653650846,"(41.94661528834025, -87.66536508455619)"
2059,PB2017A02059,"Lakeview Associates, Inc. (property manager)",,1535-1537,W,Addison,ST,12,14-20-300-010-0000,,11/21/2017,11/21/2017,41.9468974752,-87.6677929246,"(41.9468974751969, -87.66779292457723)"
2088,PB2017A02088,President,Carpenters Court Homeowners Association,448,N,Carpenter,ST,12,17-08-248-019,,12/04/2017,12/04/2017,41.8903419611,-87.6535878049,"(41.89034196106098, -87.65358780493558)"
1071,PB2017A01071,authorized agent,Commonwealth Historic Priarie Avenue HOA,1815-1849,S,Prairie,AVE,37,17-22-309-072-0000-17-22-309-114-0000,,02/03/2017,02/03/2017,41.8574182762,-87.6206084598,"(41.85741827615482, -87.620608459751)"
2940,PB2019A02940,Manager,,3133,W,lawrence,AVE,21,13-13-100-017-0000,,10/04/2019,10/04/2019,41.9683547002,-87.7073943249,"(41.96835470022669, -87.7073943249261)"
1451,PB2017A01451,PROPERTY MANAGER,,845-849,W,SHERIDAN,RD,8,14-20-214-003-0000,,07/20/2017,07/20/2017,41.9526113667,-87.6514193933,"(41.952611366696445, -87.65141939329096)"
500,PB2016A00500,Authorized Agent,Bel Harbour Condominium Assoc,420,W,Belmont,AVE,207,14-21-314-053-1001-1327,,08/09/2016,08/30/2016,41.9402128873,-87.6404497737,"(41.94021288733969, -87.64044977373753)"
832,PB2017A00832,Owner,Northtown Village Phase II,722,W,Evergreen,AVE,,17-04-113-100-1076,,,08/29/2016,41.9064733937,-87.6464454293,"(41.90647339372219, -87.6464454292848)"
1274,PB2017A01274,Registered Agent,,652,N,Noble,ST,16,17-08-113-015-0000,,03/27/2017,03/27/2017,41.8940607742,-87.6624942196,"(41.894060774177625, -87.66249421964179)"
582,PB2016A00582,Authorized Agent,Astoria Tower Condominium Assoc,8,E,9th,ST,248,17-15-304-064-1001-1232,,,09/15/2016,41.8706349908,-87.6272775301,"(41.87063499080216, -87.62727753012125)"
3127,PB2021A03127,Kalabich Management,,3520-3534,W,83RD,PL,21,19-35-400-033 thru 037 and 060-0000,,03/30/2021,03/30/2021,41.7415580717,-87.7103383408,"(41.74155807165225, -87.71033834082398)"
716,PB2016A00716,Registered Agent,Patterson I LLC,1837,W,Patterson,AVE,37,14-19-228-033-0000,10/05/2016,,10/06/2016,41.9477118648,-87.6758461497,"(41.947711864773595, -87.6758461496647)"
2163,PB2018A02163,Attorney,Townhomes on Wabash Street at 14th Place,26,E,14th,PL,16,"17-22-106-097-0000 through 17-22-106-113-0000, inclusive",,03/02/2018,03/02/2018,41.862534302,-87.6261560965,"(41.862534301978165, -87.6261560964803)"
819,PB2017A00819,Owner,Northtown Village Phase I,1329,N,Burling,ST,,17-04-145-005-0000,,,08/29/2016,41.9057398792,-87.6471761078,"(41.90573987916547, -87.6471761077915)"
2949,PB2019A02949,Registered Agent,Wabash Station II Condominium Association,1922-1934,S,Wabash,AVE,24,17-22-305-059-1001 through 17-22-305-059-1024,,10/16/2019,10/16/2019,41.8559407811,-87.6257163238,"(41.85594078111565, -87.62571632383018)"
1911,PB2017A01911,authorized agent,,58,W,15th,ST,1,17-21-211-347-0000,,09/11/2017,09/11/2017,41.8620299106,-87.6296534372,"(41.86202991061113, -87.62965343721505)"
2867,PB2019A02867,MANAGER,,4356-4358,S,LAKE PARK,AVE,6,20-02-304-038-0000,,10/02/2019,10/02/2019,41.8154740965,-87.5980012862,"(41.81547409653474, -87.59800128623318)"
240,PB2016A00240,President,Caravel Condominium Assoc,635,N,Dearborn,ST,124,17-09-227-033-1001-1124,,02/26/2003,07/28/2016,41.8934359993,-87.6295533136,"(41.893435999277635, -87.6295533135753)"
1517,PB2017A01517,President,,2807,N,WOLCOTT,AVE,999,99999999999999,,08/10/2017,08/10/2017,41.9325576935,-87.6755390664,"(41.93255769347128, -87.67553906635938)"
3030,PB2019A03030,Treasurer,,1941-1943,W,Armitage,AVE,6,14-31-400-054-1001 thru 1006,,12/09/2019,12/09/2019,41.917663987,-87.6767981115,"(41.91766398697072, -87.67679811152443)"
602,PB2016A00602,Authorized Agent,Chelsea Townhomes,1117 #7,W,Monroe,ST,1,17-17-210-090-0000,,,09/22/2016,41.8802470942,-87.6553839969,"(41.880247094162456, -87.6553839968631)"
1566,PB2017A01566,Property Manager,Landmark Village Condo Association,2911,N,Wolcott,AVE,999,14-30-222-173-1041,,08/10/2017,08/10/2017,41.9345003483,-87.6756158658,"(41.934500348273176, -87.67561586577001)"
1636,PB2017A01636,Agent,"Wayne-Waveland Properties, INC.",3700-3706,N,Wayne,AVE,19,14-20-115-035-0000,,08/11/2017,08/11/2017,41.9490101495,-87.6630055492,"(41.949010149515686, -87.6630055492049)"
712,PB2016A00712,Registered Agent,Barry I LLC,660,W,Barry,AVE,35,14-28-104-069-0000,10/05/2016,,10/06/2016,41.9379804988,-87.6466588874,"(41.937980498810006, -87.64665888742677)"
668,PB2016A00668,Board President,Union Park Lofts Condo Assoc,1327,W,Washington,BLVD,37,17-08-335-028-1001-1037,,,10/05/2016,41.8828129882,-87.6606822905,"(41.88281298818196, -87.66068229045455)"
1683,PB2017A01683,AUTHORIZED AGENT,WOODLANDS OF BRONZEVILLE CONDOMINIUM ASSOCIATION,606,E,WOODLAND PARK,,240,17-34-219-150-0000,,08/11/2017,08/11/2017,41.832382554,-87.6108543313,"(41.832382554013485, -87.61085433128137)"
1633,PB2017A01633,Agent,River North Commons Condo Assn,521-525,W,Superior,ST,198,17-09-118-015-1425,,08/11/2017,08/11/2017,41.8953808731,-87.6423606519,"(41.89538087313116, -87.64236065186535)"
91,PB2016A00091,Authorized Agent,Lakewood Court I Condominium,6906-6912,N,Lakewood,AVE,24,11-32-118-019-1001-1024,,,07/29/2016,42.0069621255,-87.6638419821,"(42.006962125467204, -87.66384198214223)"
1103,PB2017A01103,Registered Agent,Sheridan I LLC,6710,N,Sheridan,RD,44,11-32-307-029-0000,02/14/2017,02/14/2017,02/14/2017,42.0039127615,-87.6609760217,"(42.00391276151512, -87.66097602165705)"
1318,PB2017A01318,President,Wabash Flats Homeowners Assoc,1243,S,Wabash,AVE,25,17-22-101-038-1002,,04/11/2017,04/11/2017,41.8662612525,-87.6256574012,"(41.866261252530165, -87.62565740118897)"
1158,PB2017A01158,"managing agent, TCC Realty LLC",,5042-5050,N,Glenwood,AVE,31,14-08-307-021-0000,,02/23/2017,02/23/2017,41.973916094,-87.6648331169,"(41.9739160939543, -87.66483311694765)"
1559,PB2017A01559,PROPERTY MANAGER,KINZIE PARK TOWNHOME ASSOCIATION,426-484,N,CANAL,ST,82,17091120930000,08/09/2016,08/10/2017,08/10/2017,41.8896708714,-87.6408394585,"(41.889670871389356, -87.6408394584985)"
678,PB2016A00678,President,Sanctuary Loft Condos,2411,W,Walton,ST,13,16-01-0423-055-1001-1013,,,10/13/2016,41.898352659,-87.6874149966,"(41.89835265895045, -87.68741499664259)"
1673,PB2017A01673,REGISTERED AGENT,LINCOLN PARK PLACE CONDOMINIUM ASSOCIATION,2403-2405,N,ORCHARD,ST,12,14283150481012,,08/11/2017,08/11/2017,41.9256150599,-87.6461925181,"(41.925615059876876, -87.64619251810657)"
1275,PB2017A01275,Registered Agent,,1201-1209,W,Waveland,AVE,16,14-20-126-015-0000,,03/27/2017,03/27/2017,41.9488567526,-87.6592683057,"(41.948856752551286, -87.65926830574108)"
414,PB2016A00414,Registered Agent,Park Gables Apartment Homes,2438-2484,W,Estes,AVE,72,10-36-206-025-0000,,,08/12/2016,42.0105386565,-87.6917627462,"(42.01053865649926, -87.69176274622335)"
95,PB2016A00095,Authorized Agent,Edgebrook Pointe Condo Assoc,6419-6425,W,Touhy,AVE,24,10-31-208-047-1001-1058,,,07/29/2016,42.0118877327,-87.7875073118,"(42.01188773269665, -87.78750731177352)"
12,PB2016A00012,Authorized Agent,Pinnacle Condominium Assoc.,21,E,Huron,ST,213,17-10-107-016-1001-1213,,11/01/2004,07/19/2016,41.8947801798,-87.6272172412,"(41.8947801798193, -87.62721724116876)"
382,PB2016A00382,President,40 E Delaware Place Condominium Assoc,40,E,Delaware,PL,75,17-03-209-016-0000-1078,,12/29/2016,08/08/2016,41.8992762151,-87.626811913,"(41.89927621506065, -87.62681191300578)"
429,PB2016A00429,Registered Agent,Park Castle Condominium Assoc,2416-2458,W,Greenleaf,AVE,68,10-36-213-006-0000,,,08/15/2016,42.0096149398,-87.6906098693,"(42.00961493978809, -87.6906098692729)"
2018,PB2017A02018,registered agent,Southport Place Condo Assoc,4003-4035,N,Southport,AVE,43,14-17-315-014-1000,10/18/0017,10/18/2017,10/18/2017,41.954461488,-87.6640699768,"(41.95446148803626, -87.66406997682951)"
1535,PB2017A01535,authorized agent,North Town Village Condo Assoc,1317,N,Burling,ST,145,17-04-113-100-1037-1038,,08/10/2017,08/10/2017,41.9054373322,-87.6471683058,"(41.9054373321919, -87.64716830575611)"
961,PB2017A00961,Registered Agent,Gallery 400 Condo Assoc,400,W,Ontario,ST,117,17-09-127-036-1001-1117 and 17-09-127-036-1119-1236,12/12/2016,,12/14/2016,41.893235454,-87.6387764677,"(41.893235453981156, -87.63877646774957)"
2213,PB2018A02213,Property Manager,,1658,N,Harding,AVE,5,13-35-322-016-0000,,04/03/2018,04/03/2018,41.9116302174,-87.7253120764,"(41.91163021737749, -87.72531207641205)"
589,PB2016A00589,Authorized Agent,River East Center Condominium Association,512,N,McClurg,CT,620,17-10-223-033-1001-1620,,,08/25/2016,41.8915178945,-87.6178305226,"(41.89151789453108, -87.61783052258244)"
1586,PB2017A01586,AUTHORIZED AGENT,LAKESHORE POINTE CA,2347-2377,E,70TH,PL,63,20244300111114,08/08/2016,08/10/2017,08/10/2017,41.7670371994,-87.5678606461,"(41.7670371994043, -87.56786064613509)"
1887,PB2017A01887,authorized agent,,1430,S,Federal,ST,1,17-21-211-040-0000,,09/11/2017,09/11/2017,41.863222541,-87.6295215692,"(41.86322254103429, -87.62952156924285)"
2306,PB2018A02306,Property Manager,Kinetic Lofts at Rainbo Village Condominium Association,4814-4846,N,Clark,ST,88,14-08-315-058-1001,03/29/2018,04/18/2018,04/18/2018,41.9694204668,-87.6677120689,"(41.96942046680135, -87.66771206889904)"
190,PB2016A00190,Authorized Agent,Berwyn Court,2910-2920,W,Berwyn,AVE,21,13-12-115-048-1001,,,08/01/2016,41.9777342146,-87.7019056991,"(41.97773421463022, -87.70190569905618)"
2445,PB2019A02445,HOA President,Spaulding Court,4654-4660,N,Spaulding,AVE,13,13-14-204-049-1008,,01/03/2019,01/03/2019,41.9662074475,-87.7109981454,"(41.96620744753194, -87.71099814544917)"
57,PB2016A00057,Authorized Agent,Block y Condo Assoc,1301,W,Madison,ST,179,17-17-104-041-1001-1179,,05/09/2000,07/22/2016,41.8814630254,-87.6596603496,"(41.88146302536488, -87.65966034955883)"
481,PB2016A00481,Authorized Agent,Towne Park Condominium Assoc,1760,N,Wells,ST,13,14-33-413-041-1000,,08/29/2016,09/01/2016,41.9146047856,-87.6349639784,"(41.914604785613605, -87.6349639784029)"
191,PB2016A00191,Authorized Agent,Pine Grove Apt Building Corp Condominium Assoc,601-611,W,Addison,ST,20,14-21-301-007-0000,,,08/01/2016,41.9478000199,-87.6455744952,"(41.94780001988993, -87.645574495175)"
2684,PB2019A02684,Manager,,1352,N,LA SALLE,DR,3,17-04-215-064-0000,,10/02/2019,10/02/2019,41.9072743391,-87.6331798104,"(41.90727433910867, -87.63317981043542)"
949,PB2017A00949,Authorized Agent,Bridgeport Station Lofts Condo Assoc,3505,S,Morgan,ST,66,17-32-402-024-1001-1145,12/12/2016,,10/07/2016,41.8305108599,-87.6508189712,"(41.83051085985652, -87.65081897121267)"
2504,PB2019A02504,Lavinia Shimkus,,4619,N,Monticello,AVE,4,13-14-113-012-0000,,03/28/2019,03/28/2019,41.9652814861,-87.7192358481,"(41.96528148614234, -87.719235848053)"
465,PB2016A00465,Authorized Agent,Kenton Court Condominium Assoc,5311-5329,N,Kenmore,AVE,40,14-08-209-020-1001-1040,,,08/17/2016,41.9785785322,-87.6563276038,"(41.97857853215917, -87.65632760376937)"
548,PB2016A00548,Authorized Agent,"RTS Properties LLC, Pulaski-Keystone Series",1901,N,Pulaski,RD,5,13-35-300-022-0000,,,08/31/2016,41.9154407553,-87.7263701278,"(41.915440755251716, -87.72637012778056)"
1603,PB2017A01603,Agent,Pattington Condo Assn,701-719,W,Bittersweet,PL,84,14-16-305-021-1001,,08/10/2017,08/10/2017,41.9555839482,-87.6474671337,"(41.95558394818363, -87.64746713367336)"
1642,PB2017A01642,President,Four Corners II Condo Assn,5312-5316,S,Kimbark,AVE,21,20-11-413-020-1001,,08/11/2017,08/11/2017,41.799038374,-87.5951627969,"(41.79903837399771, -87.59516279689386)"
236,PB2016A00236,Owner,Bean Properties,1403-1405,N,Wells,ST,6,17-04-205-031-0000,,,08/04/2016,41.9077986624,-87.6344622532,"(41.90779866244772, -87.6344622532244)"
3324,PB2023A03324,"Board President, 1700-04 West Catalpa Avenue Condominium Association",,1700-1704,W,Catalpa,AVE,9,14-07-204-042-1001; 14-07-204-042-1002; 14-07-204-042-1003; 14-07-204-042-1004; 14-07-204-042-1005; 14-07-204-042-1006; 14-07-204-042-1007; 14-07-204-042-1008; 14-07-204-042-1009,,08/06/2023,08/06/2023,41.981717731,-87.6723376755,"(41.981717730993736, -87.67233767550819)"
872,PB2017A00872,Authorized Agent,Fullerton-Kedzie Condo Assoc,3225-3231,W,Fullerton,AVE,28,13-35-208-032-1001-1059,,,11/05/2016,41.9245949643,-87.7085035032,"(41.92459496431177, -87.70850350320103)"
1574,PB2017A01574,authorized agent,North Town Village Condo Assoc,757-759,W,Scott,ST,145,17-04-113-100-1109-1112,,08/10/2017,08/10/2017,41.9048611492,-87.6480709505,"(41.90486114923342, -87.64807095053179)"
2313,PB2018A02313,Registered Agent,,801-811,W,Bradley,PL,20,14-20-223-049-1002-1017,,05/02/2018,05/02/2018,41.9500059245,-87.6496946933,"(41.9500059245378, -87.64969469334677)"
2367,PB2018A02367,Property Manager,Avenue East Condominium Association,160,E,Illinois,ST,135,17-10-126-011-1001 thru 1135,,09/21/2018,09/21/2018,41.8910641781,-87.6229179249,"(41.891064178115734, -87.62291792491408)"
835,PB2017A00835,Owner,Northtown Village Phase II,708,W,Evergreen,AVE,,17-04-113-100-1065,,,08/29/2016,41.906476726,-87.6462158303,"(41.90647672595279, -87.64621583025428)"
318,PB2016A00318,Property Manager,Greenhouse Condominium Assoc,2131,N,Clark,ST,11,14-33-206-051-1001-1011,,,08/03/2016,41.9210615259,-87.6375771781,"(41.921061525898274, -87.63757717811625)"
2478,PB2019A02478,Board President,55 W Erie Condominium a/k/a Town Retreat III HOA,55,W,Erie,ST,9,17-09-226-015-1001 thru 1009,03/06/2019,03/06/2019,03/06/2019,41.8939355336,-87.6302282395,"(41.89393553363733, -87.63022823951569)"
2984,PB2019A02984,manager,,2749-2761,N,sawyer,AVE,17,13-26-407-001-0000,,10/30/2019,10/30/2019,41.9316007324,-87.7084845393,"(41.93160073237841, -87.70848453932916)"
305,PB2016A00305,Property Manager,Vines of Ravenswood Manor Condominium Assoc,3001-3003,W,Wilson,AVE,12,13-13-120-031-1001-1012,,,08/03/2016,41.9646285589,-87.7035261395,"(41.964628558859765, -87.70352613949868)"
556,PB2016A00556,Treasurer,1720 S Michigan Condominium Assoc,1720,S,Michigan,AVE,498,17-22-301-068-0000,,,09/07/2016,41.8584377722,-87.6240934146,"(41.858437772179165, -87.6240934145977)"
1375,PB2017A01375,authorized agent,1143 S Plymouth Court Condo Assoc,1143,S,Plymouth,CT,75,17-16-424-007-1001-1075,03/17/0017,06/19/2017,06/19/2017,41.8686924798,-87.6284023701,"(41.86869247982577, -87.6284023700799)"
1626,PB2017A01626,Agent,Hartland Park Townhomes,2649-2721,N,Hermitage,AVE,45,14-30-403-256-000,,08/10/2017,08/10/2017,41.9297800923,-87.6718914064,"(41.92978009229104, -87.67189140642127)"
193,PB2016A00193,Authorized Agent,LaSalle Terrace Condominium Assoc,1540,N,La Salle,DR,141,17-04-204-047-1076,,,08/01/2016,41.9103517341,-87.6332694689,"(41.91035173405037, -87.63326946885557)"
152,PB2016A00152,Authorized Agent,900/910 Lake Shore Drive Condominium Assoc,900-910,N,Lake Shore,DR,524,17-03-215-013-1001-1527,,10/08/2012,08/02/2016,41.8992809909,-87.6188945123,"(41.899280990919685, -87.61889451230181)"
709,PB2016A00709,Registered Agent,1258 West Loyola LLC,1258,W,Loyola,AVE,14,11-32-319-003-0000,10/05/2016,,10/06/2016,42.0015062875,-87.6631256762,"(42.00150628747893, -87.66312567622343)"
3189,PB2021A03189,Owner,,512,W,Wrightwood,AVE,20,14-28-308-031-0000,,11/03/2021,11/03/2021,41.930608237,-87.6419959939,"(41.93060823697257, -87.64199599387007)"
1580,PB2017A01580,Agent,Sheridan Briar South Condo Assn,411,W,Briar,PL,15,14-28-105-076-1001-1015,,08/10/2017,08/10/2017,41.9386454727,-87.6399925575,"(41.93864547265798, -87.63999255747761)"
2332,PB2018A02332,TREASURER,ARGYLE APARTMENT BUILDING COMPANY,1458-1464,W,ARGYLE,ST,24,14-08-310-024-0000,,06/12/2018,06/12/2018,41.9726715711,-87.6669352795,"(41.9726715710755, -87.66693527951774)"
2364,PB2018A02364,property manager,McKinley Park Condo Association,2323,W,Pershing,RD,163,20-06-100-123-1001-1163,,09/05/2018,09/05/2018,41.8228977313,-87.6834169214,"(41.82289773134803, -87.68341692140602)"
2110,PB2018A02110,Owner,,4055-4063,N,Elston,AVE,39,13-14-332-004-0000,,01/07/2018,01/07/2018,41.9548701814,-87.720648591,"(41.95487018142747, -87.72064859097556)"
518,PB2016A00518,Authorized Agent,Ontario Street Lofts,411,W,Ontario,ST,159,17-09-128-017-1001-1159,,,09/12/2016,41.8930119088,-87.63910207,"(41.89301190883152, -87.63910206995382)"
147,PB2016A00147,Authorized Agent,Metropolitan Tower Condominium Assoc,310,S,Michigan,AVE,234,17-15-107-078-1001-1482,,,07/27/2016,41.877987807,-87.6244598007,"(41.8779878069696, -87.62445980070322)"
1840,PB2017A01840,Owner,,2214,N,Kenmore,AVE,3,14-32-207-033-0000,,09/01/2017,09/01/2017,41.9222020474,-87.6548660678,"(41.92220204737243, -87.65486606782395)"
1518,PB2017A01518,authorized agent,North Town Village Condo Assoc,1414,N,Burling,ST,145,17-04-113-100-1001,,08/10/2017,08/10/2017,41.9067719258,-87.6474978438,"(41.906771925766435, -87.64749784381665)"
1503,PB2017A01503,President,1707/09 N Larrabee Street Condo Assoc,1707-1709,N,Larrabee,ST,6,14-33-317-061-1001-1006,,08/07/2017,08/07/2017,41.9130506812,-87.6433509704,"(41.91305068117141, -87.6433509703503)"
1058,PB2017A01058,Registered Agent,,420,W,Fullerton,PKWY,103,14-28-322-026-0000,,02/02/2017,02/02/2017,41.9257013369,-87.6400050287,"(41.92570133694689, -87.64000502869395)"
409,PB2016A00409,Authorized Agent,Park Row at Burnham Place HOA,1436-1478,S,Indiana,AVE,69,17-22-109-069-0000,,,08/25/2016,41.8630838728,-87.622597511,"(41.86308387275745, -87.62259751096867)"
166,PB2016A00166,President,El Lago Condominium Assoc,6157,N,Sheridan,RD,268,14-05-211-024-1001-1268,,,08/08/2016,41.993958017,-87.6553602782,"(41.99395801696367, -87.65536027818077)"
237,PB2016A00237,Authorized Agent,1500 Lakeshore Drive Building Corp,1500,N,Lake Shore,DR,57,17-03-101-022-0000,,,08/15/2016,41.9095974304,-87.6263122142,"(41.9095974303994, -87.62631221423587)"
2190,PB2018A02190,Owner,,1616-1617,W,Cornelia,AVE,6,14-19-417-001-0000,,03/23/2018,03/23/2018,41.9452657898,-87.6695520871,"(41.94526578983013, -87.66955208713223)"
1179,PB2017A01179,Vice President,,500,W,Belmont,AVE,72,14-21-314-031-0000,,03/03/2017,03/03/2017,41.9401915096,-87.6420437145,"(41.9401915096454, -87.64204371445956)"
753,PB2016A00753,President,Six North Michigan,6,N,Michigan,AVE,119,17-10-312-017-1001-1235,,,07/26/2016,41.8822482227,-87.6245165375,"(41.88224822273601, -87.62451653747559)"
1504,PB2017A01504,Licensed Property Manager,,1928,N,Damen,AVE,5,14-31-307-041-0000,,08/07/2017,08/07/2017,41.9167738048,-87.6777413136,"(41.916773804772106, -87.67774131363784)"
3102,PB2020A03102,Manager,,1348,W,Roscoe,ST,30,14-20-313-037-0000,,09/30/2020,09/30/2020,41.9435357125,-87.6634233774,"(41.943535712516216, -87.66342337744332)"
887,PB2017A00887,Authorized Agent,West Haven Park Homes CA,1752,W,Maypole,AVE,,17-07-321-048-1010-1017,,,08/08/2016,41.8842923262,-87.6715314625,"(41.88429232620215, -87.67153146247954)"
2613,PB2019A02613,Manager,,1447,N,Washtenaw,AVE,4,16-01-210-005-0000,,09/30/2019,09/30/2019,41.9079911148,-87.6943438114,"(41.907991114807054, -87.6943438113739)"
20,PB2016A00020,Manager,Residences at 900 Condo Assoc.,77,E,Walton,ST,47,17-03-211-041-0000,,,07/21/2016,41.8998755308,-87.6254555423,"(41.8998755307725, -87.62545554229997)"
1091,PB2017A01091,authorized agent,1415 North Dearborn Condo Assoc,1415,N,Dearborn,ST,96,17-04-211-034-1001-1095,,02/06/2017,02/06/2017,41.9082714234,-87.6299709258,"(41.90827142339081, -87.62997092580711)"
697,PB2016A00697,Registered Agent,Fullerton I LLC,742,W,Fullerton,AVE,9,14-28-311-082-0000,10/05/2016,,10/06/2016,41.9255734584,-87.6480263687,"(41.92557345837945, -87.6480263687151)"
1121,PB2017A01121,President,1519 N. Mohawk Condo Assoc,1519,N,Mohawk,ST,5,17-04-109-041-1001-1005,,02/16/2017,02/16/2017,41.9097908798,-87.6420382541,"(41.909790879812824, -87.64203825407766)"
1461,PB2017A01461,PROPERTY MANAGER,,2116,W,BERTEAU,AVE,6,14-18-312-039-0000,,07/20/2017,07/20/2017,41.9578697145,-87.6820626353,"(41.9578697145452, -87.68206263531607)"
2030,PB2017A02030,registered agent,The University Crossing Lofts,1610,S,Halsted,ST,29,17-20-406-045-1001-1031,10/03/0017,10/24/2017,10/24/2017,41.859605662,-87.6468429711,"(41.85960566199131, -87.64684297108161)"
167,PB2016A00167,Authorized Agent,1260 Astor Street Building Corporation,1260,N,Astor,ST,13,17-03-109-017-0000,,,08/08/2016,41.9057055009,-87.6274330742,"(41.9057055008613, -87.62743307417152)"
2204,PB2018A02204,Property Manager,,1304,W,Ohio,ST,7,17-08-119-021-0000,,04/02/2018,04/02/2018,41.8926294584,-87.6597540176,"(41.892629458443004, -87.65975401755938)"
113,PB2016A00113,Authorized Agent,Northfield Place Condominium Assoc,1600,N,Marshfield,AVE,16,14-31-430-049-1001-1036,,,07/29/2016,41.910701965,-87.6690611366,"(41.9107019649602, -87.66906113659977)"
933,PB2017A00933,President,Altged Court Condo,1300,W,Altgeld,ST,44,14-29-315-097-1001-1101,11/28/2016,,11/28/2016,41.9271844026,-87.6606611636,"(41.927184402627866, -87.66066116358519)"
1212,PB2017A01212,authorized agent,757 Orleans Condo Assoc,757,N,Orleans,ST,198,17-09-201-018-1001-1198,,03/03/2017,03/03/2017,41.8965031108,-87.6370235709,"(41.89650311075949, -87.63702357094722)"
249,PB2016A00249,Authorized Agent,1414 N Wells Condominium Assoc,1414,N,Wells,ST,50,17-04-203-151-1001-1110,,05/06/1994,08/02/2016,41.9080999142,-87.6347637618,"(41.90809991422898, -87.63476376180397)"
2013,PB2017A02013,President,1437 North Park Condo Association,1437,N,North Park,AVE,3,"17-04-202-097-1001, 17-04-202-097-1002, 317-04-202-097-1003",,10/13/2017,10/13/2017,41.9086583269,-87.6364405251,"(41.90865832691018, -87.6364405251322)"
426,PB2016A00426,Registered Agent,Wrightwood Place Condominium Assoc,516-522,W,Wrightwood,AVE,19,14-28-308-021-0000,,,08/15/2016,41.9305629421,-87.6421362986,"(41.93056294208, -87.64213629861189)"
2125,PB2018A02125,Community Manager,,1350,N,Wells,ST,292,17-04-213-009-0000,,02/01/2018,02/01/2018,41.9071764304,-87.6347378392,"(41.90717643035266, -87.634737839168)"
251,PB2016A00251,Authorized Agent,400 N La Salle Condominium Assoc,400,N,La Salle,DR,448,17-09-259-022-1001-1453,,,08/15/2016,41.8892253716,-87.632674115,"(41.88922537162015, -87.63267411498495)"
246,PB2016A00246,Authorized Agent,One East Scott Condominium Assoc,1,E,Scott,ST,240,17-03-112-033-1001-1239,,,08/16/2016,41.9047461496,-87.6286251676,"(41.904746149557816, -87.62862516757168)"
